commune_code,commune_nom,category,search_term,name,address,lat,lon
MA-01-051-1107,Bni Abdellah,restaurant,restaurant,CAFE TAHTAH,"3W3H+4W6, Ctre Commune Beni Abdellah",35.0527929,-4.0702293
MA-01-051-1107,Bni Abdellah,restaurant,restaurant,Espace MK Cafe,,35.1124769,-3.8414469
MA-01-051-1107,Bni Abdellah,restaurant,restaurant,Cafe Abdellah,,31.5770827,-7.8122856
MA-01-051-1107,Bni Abdellah,restaurant,restaurant,Snack JADO PRO MAX,,35.1024469,-3.8404357
MA-01-051-1107,Bni Abdellah,restaurant,restaurant,Café Abdellah,,34.7737916,-5.5458716
MA-01-051-1107,Bni Abdellah,restaurant,restaurant,Chez khadija,,33.5444643,-7.5861941
MA-01-051-1107,Bni Abdellah,restaurant,restaurant,Snack Abdellah,,31.2372729,-6.1296359
MA-01-051-1107,Bni Abdellah,restaurant,restaurant,CAFE NAHASS,,35.0526849,-4.071276
MA-01-051-1107,Bni Abdellah,restaurant,restaurant,Ctre Commune Beni Abdellah,,35.0573348,-4.0733783
MA-01-051-1107,Bni Abdellah,restaurant,restaurant,Café RIAD,,33.5448216,-7.6018357
MA-01-051-1107,Bni Abdellah,restaurant,restaurant,Smoky Pot Nigerian Restaurant in Morocco,,31.8008346,-7.1513478
MA-01-051-1107,Bni Abdellah,restaurant,restaurant,Café Assalam,,35.0521424,-4.0707847
MA-01-051-1107,Bni Abdellah,restaurant,restaurant,Restaurant somepi,,35.1297639,-3.8462274
MA-01-051-1107,Bni Abdellah,restaurant,restaurant,BBS CAFÈ PATISSERIE RESTAURANT,,33.4521848,-7.5132564
MA-01-051-1107,Bni Abdellah,restaurant,restaurant,عبدالله,,33.688162,-7.3848097
MA-01-051-1107,Bni Abdellah,restaurant,restaurant,Restaurant Hadj Abdellah,,33.595203,-7.5783523
MA-01-051-1107,Bni Abdellah,restaurant,restaurant,Restaurant Abdellah,,35.1186105,-3.3337371
MA-01-051-1107,Bni Abdellah,restaurant,restaurant,Snack Dar El Benna سناك دار البنة,,33.3792687,-8.001511
MA-01-051-1107,Bni Abdellah,restaurant,restaurant,Chez Nour2,,33.5448222,-7.5673246
MA-01-051-1107,Bni Abdellah,restaurant,restaurant,A.M.B HOUSE FOOD,,33.5900742,-7.6301766
MA-01-051-1107,Bni Abdellah,restaurant,restaurant,Café RIAD,,33.5448216,-7.6018357
MA-01-051-1107,Bni Abdellah,restaurant,restaurant,Restaurant El moussaoui,,35.0222301,-4.140425
MA-01-051-1107,Bni Abdellah,restaurant,restaurant,La casa del Adam & jado,,35.1037093,-3.8402424
MA-01-051-1107,Bni Abdellah,restaurant,restaurant,Café Hbibi hassan,,35.0791402,-4.2140026
MA-01-051-1107,Bni Abdellah,restaurant,restaurant,Café AZOUGAGH,,35.0218124,-4.1394636
MA-01-051-1107,Bni Abdellah,restaurant,restaurant,Restaurant somepi,,35.1297639,-3.8462274
MA-01-051-1107,Bni Abdellah,restaurant,restaurant,Ctre Commune Beni Abdellah,,35.0573348,-4.0733783
MA-01-051-1107,Bni Abdellah,restaurant,restaurant,Snack Dar El Benna سناك دار البنة,,33.3792687,-8.001511
MA-01-051-1107,Bni Abdellah,restaurant,restaurant,Café Comedia,,35.1047171,-3.8412398
MA-01-051-1107,Bni Abdellah,restaurant,restaurant,Restaurant Ourika,,35.1445513,-3.8517608
MA-01-051-1107,Bni Abdellah,restaurant,restaurant,Café Andouss,,31.0173039,-7.8623509
MA-01-051-1107,Bni Abdellah,restaurant,restaurant,Café Dahman,,35.021358,-4.1425052
MA-01-051-1107,Bni Abdellah,restaurant,restaurant,Café Moh n' Saleh,,35.023054,-4.1441403
MA-01-051-1107,Bni Abdellah,restaurant,restaurant,BBS CAFÈ PATISSERIE RESTAURANT,,33.4521848,-7.5132564
MA-01-051-1107,Bni Abdellah,restaurant,restaurant,CAFE NAHASS,,35.0526849,-4.071276
MA-01-051-1107,Bni Abdellah,restaurant,restaurant,Tabacal,,35.0755729,-3.9016321
MA-01-051-1107,Bni Abdellah,restaurant,restaurant,Snack salim,"2VC5+PR9, Bni Hadifa",35.0217789,-4.1403997
MA-01-051-1107,Bni Abdellah,restaurant,restaurant,مطعم عياد,"2VC5+Q85, N2, Bni Hadifa",35.0218978,-4.1416335
MA-01-051-1107,Bni Abdellah,restaurant,restaurant,دجاج قسير,"3W2H+XHW, Ctre Commune Beni Abdellah",35.0524957,-4.0710349
MA-01-051-1107,Bni Abdellah,restaurant,restaurant,Café Assalam,"3W2H+VM4, Ctre Commune Beni Abdellah",35.0521424,-4.0707847
MA-01-051-1107,Bni Abdellah,restaurant,restaurant,Café Azoul☕️ مقهى أزول,"4RJV+GP, Rouadi",35.1309805,-4.1553764
MA-01-051-1107,Bni Abdellah,restaurant,restaurant,Café Assalam,"3W2H+VM4, Ctre Commune Beni Abdellah",35.0521424,-4.0707847
MA-01-051-1107,Bni Abdellah,restaurant,restaurant,Café Tanjawi,,35.1014976,-3.8422031
MA-01-051-1107,Bni Abdellah,restaurant,restaurant,ISTANBUL FAST FOOD,"4526+V6H, Bni Bouayach",35.102224,-3.8396097
MA-01-051-1107,Bni Abdellah,restaurant,restaurant,O'darna,"Quartier, Béni Mellal",35.33043749999999,-4.3719375
MA-01-051-1107,Bni Abdellah,restaurant,restaurant,Restaurant Zaouiat,,34.917201,-4.1283646
MA-01-051-1107,Bni Abdellah,restaurant,restaurant,بائع الببوش Bou Ighraren,,35.1438003,-3.9878006
MA-01-051-1107,Bni Abdellah,restaurant,restaurant,Coffe Shop Baigo,,35.1358608,-4.1983118
MA-01-051-1107,Bni Abdellah,restaurant,restaurant,Chez Nour2,,33.5448222,-7.5673246
MA-01-051-1107,Bni Abdellah,restaurant,restaurant,A.M.B HOUSE FOOD,"750 Rue Abou Chouaib Doukkali, Casablanca 22500",34.5900625,-3.6301875
MA-01-051-1107,Bni Abdellah,restaurant,restaurant,Café Espace CLINK,,35.1091854,-3.8456292
MA-01-051-1107,Bni Abdellah,restaurant,restaurant,thawahado ELHADDIOUI,"X3GQ+G8Q, Tazourakht",34.9763382,-3.9116338
MA-01-051-1107,Bni Abdellah,restaurant,restaurant,Cafe & Restaurant Benae,Driouch,34.9780625,-4.3908125
MA-01-051-1107,Bni Abdellah,restaurant,restaurant,Snack abdellah,"H89C+JCQ, Casablanca",33.5697161,-7.6785186
MA-01-051-1107,Bni Abdellah,restaurant,restaurant,La Villa Restaurant Lounge,"Rn8, km 4, route de marrakech, Béni Mellal 23200",35.3158125,-4.3929375
MA-01-051-1107,Bni Abdellah,restaurant,restaurant,restaurant mustafa,,35.1865019,-3.9941667
MA-01-051-1107,Bni Abdellah,restaurant,restaurant,Café tarik,,35.093932,-4.2185907
MA-01-051-1107,Bni Abdellah,restaurant,restaurant,Café Restaurant Al Amal,,35.1865169,-3.994728
MA-01-051-1107,Bni Abdellah,restaurant,restaurant,Moumni Coquelet Maârif,,33.5808531,-7.6376304
MA-01-051-1107,Bni Abdellah,restaurant,restaurant,Snack Ibrahim,,35.1935663,-3.9158658
MA-01-051-1107,Bni Abdellah,restaurant,restaurant,Snack Beni Boufrah,,35.1019209,-4.31085
MA-01-051-1107,Bni Abdellah,restaurant,restaurant,Urban's café,,35.1433249,-3.9894191
MA-01-051-1107,Bni Abdellah,restaurant,restaurant,Café Bruxelles,,35.14005,-4.1340238
MA-01-051-1107,Bni Abdellah,restaurant,restaurant,Café Khali Mekki,,35.07378,-3.9613257
MA-01-051-1107,Bni Abdellah,restaurant,restaurant,Café Nadir,,35.1820502,-3.9946484
MA-01-051-1107,Bni Abdellah,restaurant,restaurant,Cafe Marbella,,35.1396454,-4.1363136
MA-01-051-1107,Bni Abdellah,restaurant,restaurant,Rest El Kebbaj,,33.6005682,-7.6174944
MA-01-051-1107,Bni Abdellah,restaurant,restaurant,cafeteria & comestibles m.ali,,35.1360038,-4.2032263
MA-01-051-1107,Bni Abdellah,restaurant,restaurant,Café Alhussein قهوة الحسين,,35.1515459,-3.9798229
MA-01-051-1107,Bni Abdellah,restaurant,restaurant,Restaurant Eatery Al Bab Rif,,35.1561539,-3.9769431
MA-01-051-1107,Bni Abdellah,restaurant,restaurant,Café Nabigh,,32.8389035,-6.802363
MA-01-051-1107,Bni Abdellah,restaurant,restaurant,Café Al Markz,,35.0973543,-3.8391171
MA-01-051-1107,Bni Abdellah,restaurant,restaurant,Café Palerme,,35.0927917,-3.8339375
MA-01-051-1107,Bni Abdellah,restaurant,restaurant,Café Restaurant Riad Andalouss,,32.581831,-6.2595719
MA-01-051-1107,Bni Abdellah,restaurant,restaurant,مقهي اولاد ادريس,,35.0216403,-4.1386737
MA-01-051-1107,Bni Abdellah,restaurant,restaurant,Café Abarkan,,35.0734798,-3.9608548
MA-01-051-1107,Bni Abdellah,restaurant,restaurant,Béné Food,"M7W8+XVW, Tiznit 85000",29.6974695,-9.7327773
MA-01-051-1107,Bni Abdellah,restaurant,restaurant,Café Jawhara,,35.0221059,-4.1425562
MA-01-051-1107,Bni Abdellah,restaurant,restaurant,Cafe Boujoun,"4VR8+542, Rouadi",35.1400917,-4.1345299
MA-01-051-1107,Bni Abdellah,restaurant,restaurant,Café Restaurant Panoramique,"6V4V+8XJ, Sammar",35.205847,-4.1051059
MA-01-051-1107,Bni Abdellah,restaurant,restaurant,Cafe Elissati,"44HP+G4R, Imzouren",35.1288604,-3.8647474
MA-01-051-1107,Bni Abdellah,restaurant,restaurant,Cafe Ben Ahmed,"33WM+M74, izghayan, Iaakien",35.0966267,-3.9168097
MA-01-051-1107,Bni Abdellah,restaurant,restaurant,Moumni restaurant nil,"H9PJ+X89 RDC Mers Sultan, 07 Rue Nil Casablanca 20490",33.5874698,-7.6192186
MA-01-051-1107,Bni Abdellah,restaurant,restaurant,Chez Mounir,,32.0141291,-6.7192966
MA-01-051-1107,Bni Abdellah,restaurant,restaurant,Café Abed lwafi,,35.1135861,-3.9224447
MA-01-051-1107,Bni Abdellah,restaurant,restaurant,café hicham bohali,"3QJP+37P, Kalaat Senada",35.0802022,-4.2143046
MA-01-051-1107,Bni Abdellah,restaurant,restaurant,Café Najim,"2MQX+JVJ, Imahoutene",35.0383637,-4.3007445
MA-01-051-1107,Bni Abdellah,restaurant,restaurant,Snak,,35.143204,-3.9879221
MA-01-051-1107,Bni Abdellah,restaurant,restaurant,Cafe diamonde,,35.1579076,-3.9788455
MA-01-051-1107,Bni Abdellah,restaurant,restaurant,Café haj saddik,,35.0226328,-4.1416393
MA-01-051-1107,Bni Abdellah,restaurant,restaurant,Café chikh ali,,35.1860686,-3.9941586
MA-01-051-1107,Bni Abdellah,restaurant,restaurant,Restaurant Iris,,35.1300213,-3.8455726
MA-01-051-1107,Bni Abdellah,restaurant,restaurant,Station Bni Boufrah,,35.119011,-4.3233991
MA-01-051-1107,Bni Abdellah,restaurant,restaurant,Café la gare,,35.0225616,-4.1422515
MA-01-051-1107,Bni Abdellah,restaurant,restaurant,Café Arenas,,35.1423185,-3.9905381
MA-01-051-1107,Bni Abdellah,restaurant,restaurant,Café Ourika,,35.1446511,-3.8497798
MA-01-051-1107,Bni Abdellah,restaurant,restaurant,Bni hdifa,,35.0224601,-4.1396094
MA-01-051-1107,Bni Abdellah,restaurant,restaurant,مطعم ريم أطلس وممون حفلات,,32.3314408,-6.3627923
MA-01-051-1107,Bni Abdellah,restaurant,restaurant,سفيان,,35.2051366,-4.0958933
MA-01-051-1107,Bni Abdellah,restaurant,restaurant,Wok in Al Hoceima,,35.2408849,-3.9304972
MA-01-051-1107,Bni Abdellah,restaurant,restaurant,Cafe Amin,,35.1979673,-4.0247514
MA-01-051-1107,Bni Abdellah,restaurant,restaurant,Café Arena,"2VC4+XRP, Haifa Street, Kasba Tadla",35.0224741,-4.1429309
MA-01-051-1107,Bni Abdellah,restaurant,restaurant,Snack Galaxy,"32CQ+WCP, Tamasint",35.0721633,-3.9614192
MA-01-051-1107,Bni Abdellah,restaurant,restaurant,بني نصار,,35.1200121,-4.0582193
MA-01-051-1107,Bni Abdellah,restaurant,restaurant,My Mqila Moumni,,33.5802275,-7.6385618
MA-01-051-1107,Bni Abdellah,restaurant,restaurant,Café Ibrahimi,,35.0221356,-4.1414709
MA-01-051-1107,Bni Abdellah,restaurant,restaurant,Ô Saveurs de la Médina,,34.0357084,-6.8243577
MA-01-051-1107,Bni Abdellah,restaurant,restaurant,Cafe Ait Boussata,,35.010545,-3.8731805
MA-01-051-1107,Bni Abdellah,restaurant,restaurant,Coopérative Fan Rouadi pour la boulangerie et pâtisserie,,35.1404292,-4.1335662
MA-01-051-1107,Bni Abdellah,restaurant,restaurant,Moumni Grillades boulevard Tantan,,33.5997203,-7.6478916
MA-01-051-1107,Bni Abdellah,restaurant,restaurant,مقهى حمو Cafe Hammo,Rouadi,35.1399375,-4.135187500000001
MA-01-051-1107,Bni Abdellah,restaurant,restaurant,Iyaziden بائع الدجاج,"2VC4+XW6, N2, Bni Hadifa",35.022425,-4.1432917
MA-01-051-1107,Bni Abdellah,restaurant,restaurant,Zahwan cafe,"3QVJ+MX, Kalaat Senada",35.0941636,-4.2174947
MA-01-051-1107,Bni Abdellah,restaurant,restaurant,Cafe Al Saïda مقهى السعادة,,35.1430732,-3.986916
MA-01-051-1107,Bni Abdellah,restaurant,restaurant,Café amine,,35.2001791,-3.9799593
MA-01-051-1107,Bni Abdellah,restaurant,restaurant,طاكوس,,35.0224621,-4.1372045
MA-01-051-1107,Bni Abdellah,restaurant,restaurant,مقها ابراهيم,,35.0608234,-4.2105199
MA-01-051-1107,Bni Abdellah,restaurant,restaurant,Cafe fikri,,35.0820624,-4.2146226
MA-01-051-1107,Bni Abdellah,restaurant,restaurant,Café Ajdir,,35.195469,-3.8945812
MA-01-051-1107,Bni Abdellah,restaurant,restaurant,Café Aswiq,"32GR+4F3, Tamasint",35.0752718,-3.9588198
MA-01-051-1107,Bni Abdellah,restaurant,café,CAFE SBAÏ (SOUSSI),,33.5667492,-7.5894186
MA-01-051-1107,Bni Abdellah,restaurant,café,Café Kevine,,33.5956074,-7.6145145
MA-01-051-1107,Bni Abdellah,restaurant,café,hay moulay abdellah ain chock Casablanca,,33.5451892,-7.5992202
MA-01-051-1107,Bni Abdellah,restaurant,café,Café RIAD,,33.5448216,-7.6018357
MA-01-051-1107,Bni Abdellah,restaurant,café,Cafe Bouanane,,33.5720515,-7.5937028
MA-01-051-1107,Bni Abdellah,restaurant,café,Café Vienna,"H9WP+65X, Rue Allal Ben Abdallah, Allal Ben Abdellah, Casablanca 20250",34.5955625,-3.6145625
MA-01-051-1107,Bni Abdellah,restaurant,café,Café abdellah,,32.2701691,-6.79563
MA-01-051-1107,Bni Abdellah,restaurant,café,KASSBA COFFEE,,33.5699788,-7.5928141
MA-01-051-1107,Bni Abdellah,restaurant,café,Café Abdellah,,34.7737916,-5.5458716
MA-01-051-1107,Bni Abdellah,restaurant,café,A Café,"Al Haddaoui 8 Bd Abdellah Ben Yacine, Casablanca 20050",34.590562500000004,-3.6021875000000003
MA-01-051-1107,Bni Abdellah,restaurant,café,Café National,,33.5917287,-7.6160178
MA-01-051-1107,Bni Abdellah,restaurant,café,CAFE KASSAB,Ben Abid,35.500437500000004,-3.8714375
MA-01-051-1107,Bni Abdellah,restaurant,café,Espace abdo,,33.5714001,-7.4667028
MA-01-051-1107,Bni Abdellah,restaurant,café,Café Abdellah,,31.8781558,-9.261311
MA-01-051-1107,Bni Abdellah,restaurant,café,Café khadra,Casablanca 20670,34.543687500000004,-4.5626875
MA-01-051-1107,Bni Abdellah,restaurant,café,Café bni mghild,,33.3963291,-5.3326215
MA-01-051-1107,Bni Abdellah,restaurant,café,Cafe El Youssoufia (Amouhay Hadj M'Barek Ben Abdellah),,33.2688007,-7.5850207
MA-01-051-1107,Bni Abdellah,restaurant,café,Cafe Abdellah,CF29+FG9,33.4011686,-7.531145
MA-01-051-1107,Bni Abdellah,restaurant,café,Espace MK Cafe,"B. P14, Bni Bouayach 32050",35.1124375,-3.8414375
MA-01-051-1107,Bni Abdellah,restaurant,café,PLAZA ABDEL,,33.621727,-7.484196
MA-01-051-1107,Bni Abdellah,restaurant,café,Café Restaurant Amsoudi,,35.1026165,-3.8414879
MA-01-051-1107,Bni Abdellah,restaurant,café,Café kintou,,34.8122984,-4.1595032
MA-01-051-1107,Bni Abdellah,restaurant,café,Cafe PHÉNIX,"Bd la marche verte, 28815",34.6845625,-4.3396875
MA-01-051-1107,Bni Abdellah,restaurant,café,مقهى عديل,"24000 Moulay abdellah, 24000",35.0936875,-3.6380625
MA-01-051-1107,Bni Abdellah,restaurant,café,Café Espace CLINK,,35.1091854,-3.8456292
MA-01-051-1107,Bni Abdellah,restaurant,café,Cafe Abdellah,,33.4011686,-7.531145
MA-01-051-1107,Bni Abdellah,restaurant,café,Café Comedia,,35.1047171,-3.8412398
MA-01-051-1107,Bni Abdellah,restaurant,café,Café Névé مقهى نيفي,,35.1088009,-3.8419366
MA-01-051-1107,Bni Abdellah,restaurant,café,Café Dahman,,35.021358,-4.1425052
MA-01-051-1107,Bni Abdellah,restaurant,café,Cafe El Youssoufia (Amouhay Hadj M'Barek Ben Abdellah),,33.2688007,-7.5850207
MA-01-051-1107,Bni Abdellah,restaurant,café,Café Azoul☕️ مقهى أزول,,35.1309805,-4.1553764
MA-01-051-1107,Bni Abdellah,restaurant,café,Espace abdo,,33.5714001,-7.4667028
MA-01-051-1107,Bni Abdellah,restaurant,café,Café Tanjawi,"Rue Algérie, Bni Bouayach",35.10143749999999,-3.8421874999999996
MA-01-051-1107,Bni Abdellah,restaurant,café,Café Salah ichoualene,"FHW2+Q3M, Ouled Abdellah",32.4969689,-6.4498332
MA-01-051-1107,Bni Abdellah,restaurant,café,Campus,"DYAR AL ATLAS IMM1, M1, Béni Mellal 23000",35.3451875,-4.3409375
MA-01-051-1107,Bni Abdellah,restaurant,café,Café HIBBOU,"9298+W4, Ouled Abdellah",34.3697998,-5.9847043
MA-01-051-1107,Bni Abdellah,restaurant,café,CAFE NAHASS,"3W3H+3FH, Ctre Commune Beni Abdellah",35.0526849,-4.071276
MA-01-051-1107,Bni Abdellah,restaurant,café,Café Moh n' Saleh,"2VF4+68H, N2, Bni Hadifa",35.023054,-4.1441403
MA-01-051-1107,Bni Abdellah,restaurant,café,"Café Beni Zourak, Hssika","JH6M+C5W, Douar Bibane Fennassa",34.6111204,-4.4170401
MA-01-051-1107,Bni Abdellah,restaurant,café,Café Khali Mekki,"32FQ+GF7, Tamasint",35.07378,-3.9613257
MA-01-051-1107,Bni Abdellah,restaurant,café,Café khadra,Casablanca 20670,34.543687500000004,-4.5626875
MA-01-051-1107,Bni Abdellah,restaurant,café,Café Assalam,"3W2H+VM4, Ctre Commune Beni Abdellah",35.0521424,-4.0707847
MA-01-051-1107,Bni Abdellah,restaurant,café,مقهى عبد الله,"VP25+JWG, N15",32.8515534,-4.2901585
MA-01-051-1107,Bni Abdellah,restaurant,café,Snack JADO PRO MAX,"4525+XRG, Place M 6, Bni Bouayach",35.1024469,-3.8404357
MA-01-051-1107,Bni Abdellah,restaurant,café,Cafe ahlam,"Unnamed Road, Bni Ayat",35.2120625,-3.5865625000000003
MA-01-051-1107,Bni Abdellah,restaurant,café,Café Nadir,"52J4+R35, Izemmouren",35.1820502,-3.9946484
MA-01-051-1107,Bni Abdellah,restaurant,café,CAFE NADIR,"N, RUE 334, 10 Rue 300 Hay Moulay Abdellah, Casablanca",34.5458125,-3.5841874999999996
MA-01-051-1107,Bni Abdellah,restaurant,café,Café Abed lwafi,437H+C2 الزاوية,35.1135861,-3.9224447
MA-01-051-1107,Bni Abdellah,restaurant,café,Urban's café,"42V6+GJC, N16, Ait Kamara",35.1433249,-3.9894191
MA-01-051-1107,Bni Abdellah,restaurant,café,Bni bouchibet,"G9P6+Q36, Taounate",34.5369062,-4.6398682
MA-01-051-1107,Bni Abdellah,restaurant,café,Café Abdelwahed,"XVVC+3QH, Loulad",32.992699,-7.1280031
MA-01-051-1107,Bni Abdellah,restaurant,café,Cafe Rihab (Ghaibi Abdellah),"7QV8+9P5, Av. de la Liberte, Safi",32.2933762,-9.2331398
MA-01-051-1107,Bni Abdellah,restaurant,café,Bni hdifa,"2VC6+X5J, Bni Hadifa",35.0224601,-4.1396094
MA-01-051-1107,Bni Abdellah,restaurant,café,Cafe Boujoun,"4VR8+542, Rouadi",35.1400917,-4.1345299
MA-01-051-1107,Bni Abdellah,restaurant,café,Café Abarkan,,35.0734798,-3.9608548
MA-01-051-1107,Bni Abdellah,restaurant,café,Café Chbani,,33.2903372,-5.3380627
MA-01-051-1107,Bni Abdellah,restaurant,café,PLAZA ABDEL,,33.621727,-7.484196
MA-01-051-1107,Bni Abdellah,restaurant,café,Cafe Amin,,35.1979673,-4.0247514
MA-01-051-1107,Bni Abdellah,restaurant,café,Café Alhussein قهوة الحسين,,35.1515459,-3.9798229
MA-01-051-1107,Bni Abdellah,restaurant,café,Café Jawhara,,35.0221059,-4.1425562
MA-01-051-1107,Bni Abdellah,restaurant,café,ELITE FUN Café & Restaurant,,32.5011023,-6.6922544
MA-01-051-1107,Bni Abdellah,restaurant,café,Café tarik,,35.093932,-4.2185907
MA-01-051-1107,Bni Abdellah,restaurant,café,Café bengrich,,33.7301405,-5.5769662
MA-01-051-1107,Bni Abdellah,restaurant,café,café abdallah,"FC3P+J77, Ouled Lahmer Khenichet",34.4540279,-5.5643258
MA-01-051-1107,Bni Abdellah,restaurant,café,Café Palerme,"Quartier Bougherman, Bni Bouayach",35.0928125,-3.8339375
MA-01-051-1107,Bni Abdellah,restaurant,café,مقهي اولاد ادريس,Bni Hadifa,35.0216875,-4.1386875
MA-01-051-1107,Bni Abdellah,restaurant,café,Café Omar ahmimou,Sidi Abdellah Ghiata,35.1653125,-4.322687500000001
MA-01-051-1107,Bni Abdellah,restaurant,café,CAFE TOUIL,"HJ59+JR6, Sidi Moussa Ben Ali",33.5591339,-7.3800854
MA-01-051-1107,Bni Abdellah,restaurant,café,Bni rzine,"275F+HCV, Ctre Commune Beni Rzine",35.008981,-4.7264594
MA-01-051-1107,Bni Abdellah,restaurant,café,Cafe Marbella,,35.1396454,-4.1363136
MA-01-051-1107,Bni Abdellah,restaurant,café,Cafe diamonde,,35.1579076,-3.9788455
MA-01-051-1107,Bni Abdellah,restaurant,café,Café Nakhil,,33.7554502,-5.4837492
MA-01-051-1107,Bni Abdellah,restaurant,café,Café Bannani,,34.0570165,-5.520641
MA-01-051-1107,Bni Abdellah,restaurant,café,café hicham bohali,"3QJP+37P, Kalaat Senada",35.0802022,-4.2143046
MA-01-051-1107,Bni Abdellah,restaurant,café,Café Chez Krimo,"H96V+6W4, Rue Abdellah Chabani, Casablanca",33.5605163,-7.6051764
MA-01-051-1107,Bni Abdellah,restaurant,café,Café haj saddik,"2VF5+385, Unnamed Road, Bni Hadifa",35.0226328,-4.1416393
MA-01-051-1107,Bni Abdellah,restaurant,café,Café Nabigh,"R5QX+F2X Municipalité de Hattane, Hattane",32.8389035,-6.802363
MA-01-051-1107,Bni Abdellah,restaurant,café,Café Benabbou,"CW93+7VR Pachalik, Dar Gueddari",34.4182329,-6.095356
MA-01-051-1107,Bni Abdellah,restaurant,café,مقهى إنفينيتي,,32.5048587,-6.6733812
MA-01-051-1107,Bni Abdellah,restaurant,café,Café Al Markz,"35W6+W9R, Bni Bouayach",35.0973543,-3.8391171
MA-01-051-1107,Bni Abdellah,restaurant,café,Caffe Abdol,"G9HX+G9V, Casablanca",33.5290436,-7.601556
MA-01-051-1107,Bni Abdellah,restaurant,café,Café barman (Mohamed boukfal),"3RJC+2R, Kalaat Senada",35.0804385,-4.1780042
MA-01-051-1107,Bni Abdellah,restaurant,café,Café Chibi,Had El Aounate 24350,34.6136875,-4.223437499999999
MA-01-051-1107,Bni Abdellah,restaurant,café,Cafe Ait Boussata,"246G+6P8, Tazourakht",35.010545,-3.8731805
MA-01-051-1107,Bni Abdellah,restaurant,café,Café Arenas,"N16, Ait Kamara",35.14231249999999,-3.9905625000000002
MA-01-051-1107,Bni Abdellah,restaurant,café,Café Abdennaji,"3XR2+6Q7, Bzou",32.090532,-7.0480681
MA-01-051-1107,Bni Abdellah,restaurant,café,Café chikh ali,"52P4+C8G, P5209, Izemmouren",35.1860686,-3.9941586
MA-01-051-1107,Bni Abdellah,restaurant,café,Café Espace espresso,,35.1725605,-3.8574408
MA-01-051-1107,Bni Abdellah,restaurant,café,Café AZOUGAGH,"2VC6+P6F, Bni Hadifa",35.0218124,-4.1394636
MA-01-051-1107,Bni Abdellah,restaurant,café,Cafe bahaeddine,"Q6FG+MQ5, N9, Khemiss Sidi Mohamed Ben Rahal",32.7741317,-7.7730286
MA-01-051-1107,Bni Abdellah,restaurant,café,بني نصار,"4W9R+XP, Tizi AYACHE",35.1200121,-4.0582193
MA-01-051-1107,Bni Abdellah,restaurant,café,Cafe Abdellah,"H5GQ+V6F, Chwiter",31.5770827,-7.8122856
MA-01-051-1107,Bni Abdellah,restaurant,café,Cafe Ben Ahmed,"33WM+M74, izghayan, Iaakien",35.0966267,-3.9168097
MA-01-051-1107,Bni Abdellah,restaurant,café,Cafe Sahili مقهى الساحلي,4RHV+Q69 4RHV+8F الرواضي,35.1294208,-4.1569019
MA-01-051-1107,Bni Abdellah,restaurant,café,Café la gare,"2VF5+23H, N2, Bni Hadifa",35.0225616,-4.1422515
MA-01-051-1107,Bni Abdellah,restaurant,café,Cafe fikri,"3QJP+R4, Kalaat Senada",35.0820624,-4.2146226
MA-01-051-1107,Bni Abdellah,restaurant,café,Café Arena,"2VC4+XRP, Haifa Street, Kasba Tadla",35.0224741,-4.1429309
MA-01-051-1107,Bni Abdellah,restaurant,café,Snack Crémerie OSLO,"Snack Crémerie OSLO, Avenue mohamed V, Bni Bouayach",35.1039375,-3.8410625
MA-01-051-1107,Bni Abdellah,restaurant,café,Café La Storia,"Boulevard Mohammed V, Béni Mellal 23000",35.3288125,-4.3719375
MA-01-051-1107,Bni Abdellah,restaurant,café,Café Nakhil,"476Q+9WV, Aït Attab",32.110982,-6.7101944
MA-01-051-1107,Bni Abdellah,restaurant,café,مطحنة عبد النبي,"6F9R+VF, Ctre Commune Lambarkiyine",33.2197049,-7.508786
MA-01-051-1107,Bni Abdellah,restaurant,café,Café emporté chez abdellah,"VHW2+X3M, Meknès",33.8977244,-5.4496325
MA-01-051-1107,Bni Abdellah,restaurant,café,Café Ennakhil,"MH2G+4GV, Sidi Bennour",32.6503598,-8.4237031
MA-01-051-1107,Bni Abdellah,restaurant,café,Café amine,"622C+F3R, Thmoujjoute",35.2001791,-3.9799593
MA-01-051-1107,Bni Abdellah,restaurant,café,Café Acil,"HF4F+MJW, Aïn Sbit",33.556731,-6.5259147
MA-01-051-1107,Bni Abdellah,restaurant,café,Café Istanbul,Ait-Kamara,35.144062500000004,-3.9826875
MA-01-051-1107,Bni Abdellah,restaurant,café,Café Cappuccino Al-Hoceima,,35.1727172,-3.8565635
MA-01-051-1107,Bni Abdellah,restaurant,café,مقها ابراهيم,,35.0608234,-4.2105199
MA-01-051-1107,Bni Abdellah,restaurant,café,ste calairis plaza,,35.116079,-4.315429
MA-01-051-1107,Bni Abdellah,restaurant,café,Cafe Fikri مقهى فكري,,35.1438018,-3.9884796
MA-01-051-1107,Bni Abdellah,restaurant,café,Café Ben Allal,,33.9029108,-5.3738592
MA-01-051-1107,Bni Abdellah,restaurant,café,Canelle Café & Restaurant,,32.3305849,-6.3718156
MA-01-051-1107,Bni Abdellah,restaurant,café,Zahwan cafe,,35.0941636,-4.2174947
MA-01-051-1107,Bni Abdellah,restaurant,café,مقهى حمو Cafe Hammo,,35.1398992,-4.1352319
MA-01-051-1107,Bni Abdellah,restaurant,café,Café,,33.0015451,-7.1351553
MA-01-051-1107,Bni Abdellah,restaurant,café,Café Panorama,,35.1476231,-3.8493858
MA-01-051-1107,Bni Abdellah,restaurant,café,Cafe Al Saïda مقهى السعادة,,35.1430732,-3.986916
MA-01-051-1107,Bni Abdellah,restaurant,café,Café Aswiq,,35.0752718,-3.9588198
MA-01-051-1107,Bni Abdellah,restaurant,café,Café nil bleu,,33.6178424,-7.1245648
MA-01-051-1107,Bni Abdellah,restaurant,café,مقهى عمر بداو,,35.1090116,-4.1849003
MA-01-051-1107,Bni Abdellah,lodging,riad,Café RIAD,,33.5448216,-7.6018357
MA-01-051-1107,Bni Abdellah,lodging,riad,Ctre Commune Beni Abdellah,,35.0573348,-4.0733783
MA-01-051-1107,Bni Abdellah,lodging,riad,riad,,33.5722875,-7.5869925
MA-01-051-1107,Bni Abdellah,lodging,riad,Traiteur riad,,33.5722875,-7.5869925
MA-01-051-1107,Bni Abdellah,hospital,clinique,Ctre Commune Beni Abdellah,,35.0573348,-4.0733783
MA-01-051-1107,Bni Abdellah,hospital,clinique,Centre international d’oncologie de Casablanca,"Rte de l'Oasis, Casablanca 20000",34.5568125,-3.6309375
MA-01-051-1107,Bni Abdellah,hospital,clinique,"Clinique Des Jardins, Clinique de santé mentale","206 Av. Mers Sultan, Casablanca 20250",34.5841875,-3.6156875
MA-01-051-1107,Bni Abdellah,hospital,clinique,Dr Siham El Bacouri - Gynécologue Obstétricien,"à côté du terminus tramway, Bd Mohammed Zefzaf, Résidence Al Manar Square, 1er étage, N2, Casablanca 20402",34.587562500000004,-4.5011875
MA-01-051-1107,Bni Abdellah,hospital,clinique,Clinique Béni Mellal / CBM,"425 Boulevard Mohammed V, Béni Mellal 23000",35.33218749999999,-4.3646875000000005
MA-01-051-1107,Bni Abdellah,hospital,clinique,Clinique International de Béni Mellal,"BENI MELLAL, Intersection bd hassan2 et bd Mohamed 6 à côté de boubker essedik, Béni Mellal 20230",35.3414375,-4.3686875
MA-01-051-1107,Bni Abdellah,hospital,clinique,Bni bouyaloul,"H27F+76F, Ksar el Kbir",33.5631966,-3.976942
MA-01-051-1107,Bni Abdellah,hospital,clinique,"Docteur Faouzia DAOUDI - médecine fonctionnelle, médecine anti-âge, médecine esthétique, thérapie TCC, Sexologue","Rue Abou Abdellah Nafii, Casablanca 20100",34.583937500000005,-3.6316875
MA-01-051-1107,Bni Abdellah,hospital,clinique,Clinique Villa des Lilas - Anfa,"Bd des Clubs, Casablanca 20250",34.5604375,-3.6520625
MA-01-051-1107,Bni Abdellah,hospital,clinique,Groupe Akdital,"246 Rte de l'Oasis, Casablanca 20250",34.5606875,-3.6293125
MA-01-051-1107,Bni Abdellah,hospital,clinique,Centre de Radiologie El Alia,"1 Bd de Sebta, Mohammédia 28830",34.6965625,-4.3839375
MA-01-051-1107,Bni Abdellah,hospital,clinique,Aouad Hiba - Psychologue clinicienne,,33.5722875,-7.5869925
MA-01-051-1107,Bni Abdellah,hospital,clinique,Dr Hallaoui Reda Urologue,,33.5823683,-7.5586441
MA-01-051-1107,Bni Abdellah,hospital,clinique,Clinique Ennour,,32.3195338,-6.3857134
MA-01-051-1107,Bni Abdellah,hospital,clinique,Clinique & Centre d’Hémodialyse Jabrane,"شارع القدس, Beni-Mellal",35.32681249999999,-4.3719375
MA-01-051-1107,Bni Abdellah,hospital,clinique,Dr Anouar REDA :PSYCHIATRE - ADDICTOLOGUE- SEXOLOGUE طبيب نفسي,"75 Rue Abou Alâa Zahr, Casablanca 20250",34.5730625,-3.6195625
MA-01-051-1107,Bni Abdellah,hospital,clinique,Dr Walid BAI urologue sexologue andrologue Casablanca,"n, imm GH8, 511 résidence Jardins Qods, 12 Bd Al Qods, Casablanca 20460",35.53531249999999,-3.6098125000000003
MA-01-051-1107,Bni Abdellah,hospital,clinique,Clinique Al Maghrib Al Jadid,"8J74+W57 شارع محمد السادس, 6 أؤ 20 غشت, Béni Mellal",35.3155625,-4.3934375
MA-01-051-1107,Bni Abdellah,hospital,clinique,Dr Berrada Mohamed Ali - Gynécologue à Casablanca,"158 Bd d'Anfa, Casablanca 20370",34.5904375,-3.6379375
MA-01-051-1107,Bni Abdellah,hospital,clinique,Polyclinique Atlas ( clinique à Beni Mellal),"rue belle vue, Béni Mellal",35.330687499999996,-4.3608125
MA-01-051-1107,Bni Abdellah,hospital,clinique,Centre de santé rurale Zerkat,P5204,34.91031249999999,-4.307437500000001
MA-01-051-1107,Bni Abdellah,hospital,clinique,ⴰⵙⴳⵏⴰⴼ ⵏ ⵍⵅⵎⵉⵙ,"C2VW+X6F, Ouled M'Barek Bni Chagdal",32.4450278,-6.954576
MA-01-051-1107,Bni Abdellah,hospital,clinique,دار عبدالله حطانة من سنة 1800 ميلادية,"CMRF+53, Douar Laatatera",34.44042,-4.3272954
MA-01-051-1107,Bni Abdellah,hospital,clinique,مستوصف,"2JJ7+75J Unnamed Road, Ichaouyene Beni Gmil",35.0307128,-4.3871196
MA-01-051-1107,Bni Abdellah,hospital,clinique,Market Abdennassar,"X4X5+9J4, Bab Berred",34.998385,-4.8909165
MA-01-051-1107,Bni Abdellah,hospital,clinique,Clinique Ennour,"N8, Beni-Mellal",35.31956249999999,-4.3856874999999995
MA-01-051-1107,Bni Abdellah,hospital,clinique,Centre de santé,"3MXR+M6C, P5205, Khmiss Beni Boufrah",35.0995323,-4.3096108
MA-01-051-1107,Bni Abdellah,hospital,clinique,"Docteur Faouzia DAOUDI - médecine fonctionnelle, médecine anti-âge, médecine esthétique, thérapie TCC, Sexologue","Rue Abou Abdellah Nafii, Casablanca 20100",34.583937500000005,-3.6316875
MA-01-051-1107,Bni Abdellah,hospital,clinique,Polyclinique Atlas ( clinique à Beni Mellal),,32.3306622,-6.3607861
MA-01-051-1107,Bni Abdellah,hospital,clinique,Clinique Bani Hassan,"FXPH+4PQ نواحي مدينة اوطاط الحاج مستوصف خالي من الأطباء بمنطقة, Ait Hssan",33.4853284,-4.0206548
MA-01-051-1107,Bni Abdellah,hospital,clinique,Faris,"R67R+CW2, Tastite",34.8135005,-3.7577396
MA-01-051-1107,Bni Abdellah,hospital,clinique,Centre de Santé Rural Tazaghine,,35.1924196,-3.4976723
MA-01-051-1107,Bni Abdellah,hospital,clinique,Hopital Aytsaid,"4M97+6G5, Dar-El Kebdani",35.1180175,-3.3361463
MA-01-051-1107,Bni Abdellah,hospital,clinique,Centre d'ophtalmologie Rif Dr Touil Saloua et Dr Boukha Ilyass,"Angle avenue 17 novembre, Avenue 16 Novembre, Al Hoceïma 32000",35.24206249999999,-3.9378124999999997
MA-01-051-1107,Bni Abdellah,hospital,clinique,Ayt Hmed Clinic,"RCC5+8J6, Unnamed Road, Beni Issi",34.8207963,-4.5909756
MA-01-051-1107,Bni Abdellah,hospital,clinique,clinique benhassou,"8JGF+VR3, Béni Mellal",32.3271375,-6.3754456
MA-01-051-1107,Bni Abdellah,hospital,clinique,طبيب الأسنان,"2VC6+QQ, Bni Hadifa",35.0220655,-4.1383717
MA-01-051-1107,Bni Abdellah,hospital,clinique,Centre de santé 2eme niveau tamorot,,34.9371796,-4.7815443
MA-01-051-1107,Bni Abdellah,hospital,clinique,Clinique Taounate,"G993+6HH, Taounate",34.5180627,-4.6460285
MA-01-051-1107,Bni Abdellah,hospital,clinique,"Clinique Des Jardins, Clinique de santé mentale","206 Av. Mers Sultan, Casablanca 20250",34.5841875,-3.6156875
MA-01-051-1107,Bni Abdellah,hospital,clinique,Dada,"Ibakriene, Ajdir 35052",35.2013125,-3.9113125
MA-01-051-1107,Bni Abdellah,hospital,clinique,Mimoun I’infermier,,34.6493578,-3.8660281
MA-01-051-1107,Bni Abdellah,hospital,clinique,Centre de Radiologie El Alia,,33.6965012,-7.3839578
MA-01-051-1107,Bni Abdellah,hospital,clinique,Ikaouen Clinic,,34.7526251,-4.6572027
MA-01-051-1107,Bni Abdellah,hospital,clinique,Dispensaire Jbarna,,34.4935167,-3.9118282
MA-01-051-1107,Bni Abdellah,hospital,clinique,Optic moudian,,35.0503203,-3.4549625
MA-01-051-1107,Bni Abdellah,hospital,clinique,Cabinet dentaire - عيادة الأسنان,,35.1224674,-3.3349594
MA-01-051-1107,Bni Abdellah,hospital,clinique,Hôpital local مستوصف محلي,,34.8690707,-4.5403952
MA-01-051-1107,Bni Abdellah,hospital,clinique,Dr Siham El Bacouri - Gynécologue Obstétricien,,33.5876004,-7.5011803
MA-01-051-1107,Bni Abdellah,hospital,clinique,AKDITAL Beni Mellal - Hôpital Privé de Beni Mellal,,32.3290921,-6.359158
MA-01-051-1107,Bni Abdellah,hospital,clinique,Maison El-yahyaoui,,34.534383,-4.5357724
MA-01-051-1107,Bni Abdellah,hospital,clinique,Cabinet dentaire Dr Bouayadi Youssef,,35.1057342,-3.8409087
MA-01-051-1107,Bni Abdellah,hospital,clinique,Labo dentaire ibrahim elkarkari,,35.0440359,-3.4534163
MA-01-051-1107,Bni Abdellah,hospital,clinique,حجامة الدريوش مركز بوقجوج للحجامة الإسلامية الدريوش - Hijama Driouch,,34.9743287,-3.3909422
MA-01-051-1107,Bni Abdellah,hospital,clinique,Boudih,,34.7301723,-3.9709482
MA-01-051-1107,Bni Abdellah,hospital,clinique,عائلة التعواطي,,34.9260876,-4.1180491
MA-01-051-1107,Bni Abdellah,hospital,clinique,المستوصف القروي أجرسيف,,34.9886369,-4.6197423
MA-01-051-1107,Bni Abdellah,hospital,clinique,المركز الصحي الحضري,,34.5389483,-4.6417858
MA-01-051-1107,Bni Abdellah,hospital,clinique,Clinique Villa des Lilas - Anfa,,33.5604199,-7.6520308
MA-01-051-1107,Bni Abdellah,hospital,clinique,Jamal fariss,,34.9495206,-3.9142529
MA-01-051-1107,Bni Abdellah,hospital,clinique,فضاء الصحة للشباب,,35.2486559,-3.9342612
MA-01-051-1107,Bni Abdellah,hospital,clinique,مصحة الرميلة,,34.5489008,-4.6465306
MA-01-051-1107,Bni Abdellah,hospital,clinique,Clinique Bades,,35.2340288,-3.9254358
MA-01-051-1107,Bni Abdellah,hospital,clinique,Centre El Morabet de Kinésithérapie,,35.2485641,-3.9309072
MA-01-051-1107,Bni Abdellah,hospital,clinique,بني احمايد أكرسيف,,34.9886489,-4.619781
MA-01-051-1107,Bni Abdellah,hospital,clinique,ثدارث محند ايكور,,35.1747565,-4.1724411
MA-01-051-1107,Bni Abdellah,hospital,clinique,Dispensaire rural Maouassif مستوصف قروي مواسيف,,34.9415718,-4.7093033
MA-01-051-1107,Bni Abdellah,hospital,clinique,CSR2 Bouhouda,,34.5920383,-4.5504913
MA-01-051-1107,Bni Abdellah,hospital,clinique,Mr azedine Major Driouch,,34.9794966,-3.3929255
MA-01-051-1107,Bni Abdellah,hospital,clinique,فريق المسجد,,35.2471471,-3.9417822
MA-01-051-1107,Bni Abdellah,hospital,clinique,مستوصف أولاد أمغار,,35.2545055,-3.6631665
MA-01-051-1107,Bni Abdellah,hospital,clinique,Centre Provincial d'Hemodialyse,,35.2392124,-3.9392206
MA-01-051-1107,Bni Abdellah,hospital,clinique,Centre de référence de la santé reproductive,,34.5395593,-4.6408274
MA-01-051-1107,Bni Abdellah,hospital,clinique,Kinelouafrasi,,35.2551024,-3.9375284
MA-01-051-1107,Bni Abdellah,hospital,clinique,مركز الشفاء أبو صهيب للحجامة النبوي,,35.1469386,-3.8492144
MA-01-051-1107,Bni Abdellah,hospital,clinique,Dar Abdeslem ahrami,,35.1620087,-3.5982625
MA-01-051-1107,Bni Abdellah,hospital,clinique,poste de santé,,34.8899303,-3.7279108
MA-01-051-1107,Bni Abdellah,hospital,clinique,Dr Walid BAI urologue sexologue andrologue Casablanca,,33.5353675,-7.6098661
MA-01-051-1107,Bni Abdellah,hospital,clinique,Afrass ozayou,,35.0711839,-3.5631695
MA-01-051-1107,Bni Abdellah,hospital,clinique,NADER DOUKH,,34.5490385,-4.5478866
MA-01-051-1107,Bni Abdellah,hospital,clinique,Omar Abchir,,34.9858769,-4.0888005
MA-01-051-1107,Bni Abdellah,hospital,clinique,DISPENSAIRE HAMDANE,,34.6386347,-4.7149609
MA-01-051-1107,Bni Abdellah,hospital,clinique,CSR1 Bouadel lemrouj,,34.541794,-4.526781
MA-01-051-1107,Bni Abdellah,hospital,clinique,Maison de Machdoud driss,,34.7858927,-3.9028669
MA-01-051-1107,Bni Abdellah,hospital,clinique,CENTRE DE SANTÉ TALA YOUSSEF,,35.2305625,-3.9750625
MA-01-051-1107,Bni Abdellah,hospital,clinique,Clinique Jawade,,34.5180669,-4.646035
MA-01-051-1107,Bni Abdellah,hospital,clinique,Centre dentaire,"44VW+WVG, Imzouren",35.1448125,-3.8527969
MA-01-051-1107,Bni Abdellah,hospital,clinique,Abbas ajjouri,Q6GJ+RX إعاجون,34.7770874,-3.767581
MA-01-051-1107,Bni Abdellah,hospital,clinique,Cabinet Dr Souad El asraouy,"62253, Driouch 62253",34.9780625,-4.3923125
MA-01-051-1107,Bni Abdellah,hospital,clinique,Dispensaire de tayenza مستوصف تاينزة,"Q5FQ+QGF, Douar Tayanza",34.7744394,-4.8112088
MA-01-051-1107,Bni Abdellah,hospital,clinique,مركز اسلام للحجامة الطبيعية,,35.04058,-3.4548136
MA-01-051-1107,Bni Abdellah,hospital,clinique,Groupe Akdital,"246 Rte de l'Oasis, Casablanca 20250",34.5606875,-3.6293125
MA-01-051-1107,Bni Abdellah,hospital,clinique,Medical doctor,"X454+57, Tizamourine Arbaa Taourirt",34.9579651,-3.8942664
MA-01-051-1107,Bni Abdellah,hospital,clinique,Dispensaire bni ammar,"3HV8+FF8, Bni Ammar",34.0936674,-5.4338014
MA-01-051-1107,Bni Abdellah,hospital,clinique,الصندوق الوطني لمنظمات الاحتياط الاجتماعي CNOPS,"63V9+X8V, Rue Salah Eddine El Ayoubi, Al Hoceïma",35.2449992,-3.9317027
MA-01-051-1107,Bni Abdellah,hospital,clinique,Dr Makran Abdelhakim,"44VW+WVG, Imzouren",35.1448125,-3.8527969
MA-01-051-1107,Bni Abdellah,hospital,clinique,Délégations de santé,"G9P4+RWC, Taounate",34.5370643,-4.6427321
MA-01-051-1107,Bni Abdellah,hospital,clinique,sidi boutmim,"WPW2+3XP, S302, Sidi Boutmim",34.9461639,-4.2974339
MA-01-051-1107,Bni Abdellah,hospital,clinique,دار الأمومة - دار الكبداني,"4M97+FXX, Dar-El Kebdani",35.1189335,-3.3349869
MA-01-051-1107,Bni Abdellah,hospital,clinique,Dr Hallaoui Reda Urologue,"76 Bd de la Grande Ceinture, Casablanca 20320",34.5823125,-4.5586875
MA-01-051-1107,Bni Abdellah,hospital,clinique,مستوصف بني رزين,"275F+QF2, Ctre Commune Beni Rzine",35.0093867,-4.7263661
MA-01-051-1107,Bni Abdellah,hospital,clinique,Dr Anouar REDA :PSYCHIATRE - ADDICTOLOGUE- SEXOLOGUE طبيب نفسي,"75 Rue Abou Alâa Zahr, Casablanca 20250",34.5730625,-3.6195625
MA-01-051-1107,Bni Abdellah,hospital,clinique,dmena,,34.5369062,-4.6398682
MA-01-051-1107,Bni Abdellah,hospital,clinique,famille belkadi,,35.0150627,-3.5323355
MA-01-051-1107,Bni Abdellah,hospital,clinique,مركز تصفية الدم منار بادس الحسيمة,,35.2442473,-3.9537408
MA-01-051-1107,Bni Abdellah,hospital,clinique,Dispensaire rural hadaka,,34.8576877,-4.8446313
MA-01-051-1107,Bni Abdellah,hospital,clinique,El Gouzatte,,34.4947486,-4.1419346
MA-01-051-1107,Bni Abdellah,hospital,clinique,M'hamed Azzaoui,,34.8310389,-3.7452745
MA-01-051-1107,Bni Abdellah,hospital,clinique,مستوصف ومركز معالجة الإدمان,,35.1489467,-3.8425735
MA-01-051-1107,Bni Abdellah,hospital,clinique,Clinique Al Chifa,,32.3315501,-6.3619889
MA-01-051-1107,Bni Abdellah,hospital,clinique,Centre de Santé Trougout,,35.1805589,-3.7725763
MA-01-051-1107,Bni Abdellah,hospital,clinique,Centre Régional d’Oncologie Al Hoceïma,,35.2374,-3.9281986
MA-01-051-1107,Bni Abdellah,hospital,clinique,Zahrani,,35.21223,-3.6176659
MA-01-051-1107,Bni Abdellah,hospital,clinique,مركز صحة الشباب وصحة الأسنان,,35.1490391,-3.8423063
MA-01-051-1107,Bni Abdellah,hospital,clinique,عيادة طبية الدكتورة لبرمي زينب,,35.2061874,-4.6663156
MA-01-051-1107,Bni Abdellah,hospital,clinique,Dar haj loughmari ali,,34.670927,-4.0195936
MA-01-051-1107,Bni Abdellah,hospital,clinique,مستوصف,,34.7622795,-3.7947709
MA-01-051-1107,Bni Abdellah,hospital,clinique,Hospital,,34.9725275,-3.393844
MA-01-051-1107,Bni Abdellah,hospital,clinique,DAR CAÏD REGOUG,,34.4534361,-4.3158429
MA-01-051-1107,Bni Abdellah,hospital,clinique,مركز ابو صفوان للحجامة الطبية والرقية الشرعية,,35.1443643,-3.8510108
MA-01-051-1107,Bni Abdellah,pharmacy,pharmacie,Pharmacie Bni Lent,,33.5332956,-7.5834294
MA-01-051-1107,Bni Abdellah,pharmacy,pharmacie,PHARMACIE & PARA EL HAMZAOUI,,33.5988299,-7.5741279
MA-01-051-1107,Bni Abdellah,pharmacy,pharmacie,Pharmacie et Parapharmacie Bano Khalil,,33.5307375,-7.474124
MA-01-051-1107,Bni Abdellah,pharmacy,pharmacie,Pharmacie Bni M'ghit,,33.6832268,-7.336698
MA-01-051-1107,Bni Abdellah,pharmacy,pharmacie,Pharmacie Beni Khloug,,33.5332956,-7.5834294
MA-01-051-1107,Bni Abdellah,pharmacy,pharmacie,Pharmacie BEN ABBES,,33.5263773,-7.5284012
MA-01-051-1107,Bni Abdellah,pharmacy,pharmacie,Pharmacie La Résidence,,33.5722875,-7.5869925
MA-01-051-1107,Bni Abdellah,pharmacy,pharmacie,Pharmacie Béni Oukil,,32.5756062,-6.8397735
MA-01-051-1107,Bni Abdellah,pharmacy,pharmacie,Citymall,,31.8008346,-7.1513478
MA-01-051-1107,Bni Abdellah,pharmacy,pharmacie,Pharmacie & ParaPharmacie Bahmad,,33.5722875,-7.5869925
MA-01-051-1107,Bni Abdellah,pharmacy,pharmacie,صيدلية درب مولاي الشريف - Pharmacie derb moulay cherif,,31.8008346,-7.1513478
MA-01-051-1107,Bni Abdellah,pharmacy,pharmacie,PHARMACIE BNI BOUZRAصيدلية بني بوزرة,,35.3139677,-4.9679758
MA-01-051-1107,Bni Abdellah,pharmacy,pharmacie,Pharmacie Al Jabbar,,33.5303561,-7.6811685
MA-01-051-1107,Bni Abdellah,pharmacy,pharmacie,Pharmacie Route Bni Mllal,4PXH+976,32.1484203,-7.2718672
MA-01-051-1107,Bni Abdellah,pharmacy,pharmacie,Pharmacie Béni Guil,Tendrara,35.0488125,-4.0033125
MA-01-051-1107,Bni Abdellah,pharmacy,pharmacie,Pharmacie Bni Rabiaa,"JQQH+PV5, Beni Rebiaa",34.6392404,-5.2203227
MA-01-051-1107,Bni Abdellah,pharmacy,pharmacie,Pharmacie Chikh Bahloul صيدلية الشيخ البهلول,"R303, Bir Jdid",35.368187500000005,-3.9916875000000003
MA-01-051-1107,Bni Abdellah,pharmacy,pharmacie,Pharmacie Salah Eddine صيدلية صلاح الدين,"135,bloc3 hay nidal, Bir Jdid",35.3791875,-3.9985625000000002
MA-01-051-1107,Bni Abdellah,pharmacy,pharmacie,Pharmacie al irfane صيدلية العرفان,"92H8+63M, Bir Jdid",33.3779261,-7.9845301
MA-01-051-1107,Bni Abdellah,pharmacy,pharmacie,Allal Ben Abdellah Pharmacy,"WG75+XHH, Meknes",33.9149397,-5.4910297
MA-01-051-1107,Bni Abdellah,pharmacy,pharmacie,Pharmacie Khalid Ibn Al Walid,"centre ville, https//maps.app.goo.gl/vapzhu97zQmvXx7S9 Pharmacie khalid ibn-alwalid, 17 boulevard Hajrat Nekkour, Al Hoceima 32000",35.2416875,-3.9319375
MA-01-051-1107,Bni Abdellah,pharmacy,pharmacie,صيدلية الكبرى,"4525+QXM, Bni Bouayach",35.101952,-3.8400652
MA-01-051-1107,Bni Abdellah,pharmacy,pharmacie,Pharmacie BEN ABBES,"GFGC+HJ5, Nouvelle Lahraouine",33.5263773,-7.5284012
MA-01-051-1107,Bni Abdellah,pharmacy,pharmacie,Pharmacie Beni Khloug,,33.5332956,-7.5834294
MA-01-051-1107,Bni Abdellah,pharmacy,pharmacie,Pharmacie Chifaa,"V254+MHF, Beni Drar",34.859191,-1.9935868
MA-01-051-1107,Bni Abdellah,pharmacy,pharmacie,Pharmacie Gzenaya,"Cafe Afrique, Aknoul 35050",34.6450625,-3.8619375
MA-01-051-1107,Bni Abdellah,pharmacy,pharmacie,Pharmacie Chikh Bahloul صيدلية الشيخ البهلول,"R303, Bir Jdid",35.368187500000005,-3.9916875000000003
MA-01-051-1107,Bni Abdellah,pharmacy,pharmacie,Allal Ben Abdellah Pharmacy,"WG75+XHH, Meknes",33.9149397,-5.4910297
MA-01-051-1107,Bni Abdellah,pharmacy,pharmacie,Pharmacie AL Abrar,"5532+R86, Av. Rabat, Imzouren",35.154548,-3.8492284
MA-01-051-1107,Bni Abdellah,pharmacy,pharmacie,Pharmacie Bnigmil,"3JM7+CVJ, Sebt Beni Gmil",35.0835784,-4.3853706
MA-01-051-1107,Bni Abdellah,pharmacy,pharmacie,Pharmacie errazi صيدلية الرازي,"4535+CV5, Rue Ouad Al Makhazine, Bni Bouayach",35.1036383,-3.8403061
MA-01-051-1107,Bni Abdellah,pharmacy,pharmacie,Pharmacie Beni Khaled,"X4X5+G43, Bab Berred",34.9987654,-4.8922138
MA-01-051-1107,Bni Abdellah,pharmacy,pharmacie,Pharmacie Salah Eddine صيدلية صلاح الدين,,33.3791492,-7.9986239
MA-01-051-1107,Bni Abdellah,pharmacy,pharmacie,Pharmacie Ibn Rochd,,32.1368523,-7.3573992
MA-01-051-1107,Bni Abdellah,pharmacy,pharmacie,Rochdi,,34.9432203,-4.3128549
MA-01-051-1107,Bni Abdellah,pharmacy,pharmacie,Pharmacie Badr,,34.8551207,-1.9907837
MA-01-051-1107,Bni Abdellah,pharmacy,pharmacie,صيدلية أبي يعقوب البادسي,,35.2471218,-3.9451154
MA-01-051-1107,Bni Abdellah,pharmacy,pharmacie,Pharmacie al irfane صيدلية العرفان,,33.3779261,-7.9845301
MA-01-051-1107,Bni Abdellah,pharmacy,pharmacie,Pharmacie Bni Khirane,,32.87796,-6.921472
MA-01-051-1107,Bni Abdellah,pharmacy,pharmacie,Pharmacie Abdelkarim El Khattabi,,35.2442755,-3.9354426
MA-01-051-1107,Bni Abdellah,pharmacy,pharmacie,صيدلية بني بوفراح,,35.1017489,-4.3108117
MA-01-051-1107,Bni Abdellah,pharmacy,pharmacie,صيدلية عبد العزيز,,32.8514355,-6.8761288
MA-01-051-1107,Bni Abdellah,pharmacy,pharmacie,Citymall,,31.8008346,-7.1513478
MA-01-051-1107,Bni Abdellah,pharmacy,pharmacie,CABINET VÉTÉRINAIRE RIF,,35.1505788,-3.8461316
MA-01-051-1107,Bni Abdellah,pharmacy,pharmacie,Pharmacie Nouvelle,,35.2434091,-3.9299847
MA-01-051-1107,Bni Abdellah,pharmacy,pharmacie,Pharmacie Dar Dbagh,,32.332377,-6.3431727
MA-01-051-1107,Bni Abdellah,pharmacy,pharmacie,Pharmacie Aknoul,,34.6562672,-3.8647024
MA-01-051-1107,Bni Abdellah,pharmacy,pharmacie,Pharmacie Bougherman,,35.0971323,-3.8386119
MA-01-051-1107,Bni Abdellah,pharmacy,pharmacie,Pharmacie Izemmouren,,35.187394,-3.9936997
MA-01-051-1107,Bni Abdellah,pharmacy,pharmacie,Pharmacie TIGHANIMINE,,35.2352356,-3.957247
MA-01-051-1107,Bni Abdellah,pharmacy,pharmacie,Pharmacie Beni Amir,,32.5003082,-6.6864084
MA-01-051-1107,Bni Abdellah,pharmacy,pharmacie,PHARMACIE REZAIGUIA ABESSE,,36.8016624,2.9369085
MA-01-051-1107,Bni Abdellah,pharmacy,pharmacie,Pharmacie Dina Santé,,35.1515472,-3.8445382
MA-01-051-1107,Bni Abdellah,pharmacy,pharmacie,Pharmacie Tamasint,,35.0723294,-3.961414
MA-01-051-1107,Bni Abdellah,pharmacy,pharmacie,Pharmacie ANnassiha,,34.9439504,-4.3154222
MA-01-051-1107,Bni Abdellah,pharmacy,pharmacie,Pharmacie Allal Ben Abdellah,,34.2266923,-3.3565858
MA-01-051-1107,Bni Abdellah,pharmacy,pharmacie,صيدلية آيت قمرة,,35.1436068,-3.9888545
MA-01-051-1107,Bni Abdellah,pharmacy,pharmacie,صيديلية الرواضي,,35.1394826,-4.1352633
MA-01-051-1107,Bni Abdellah,pharmacy,pharmacie,Pharmacie Azir,,35.2539901,-3.9348073
MA-01-051-1107,Bni Abdellah,pharmacy,pharmacie,Pharmacie Béni Mellal,,32.3337155,-6.3535655
MA-01-051-1107,Bni Abdellah,pharmacy,pharmacie,Pharmacie IBN Mohamed,,35.1291452,-3.8636842
MA-01-051-1107,Bni Abdellah,pharmacy,pharmacie,Pharmacie Beni Ouriaghel,,35.7462956,-5.8297523
MA-01-051-1107,Bni Abdellah,pharmacy,pharmacie,Pharmacie Hassan 2,,33.620675,-7.1270078
MA-01-051-1107,Bni Abdellah,pharmacy,pharmacie,Pharmacie Espagne,,35.1432265,-3.8528055
MA-01-051-1107,Bni Abdellah,pharmacy,pharmacie,Pharmacie had el Kamouni,,33.9931714,-6.5241667
MA-01-051-1107,Bni Abdellah,pharmacy,pharmacie,Parapharmacie Beauty,,35.2423158,-3.9306915
MA-01-051-1107,Bni Abdellah,pharmacy,pharmacie,صيدلية تيزي وسلي,,34.7628281,-3.7945893
MA-01-051-1107,Bni Abdellah,pharmacy,pharmacie,Pharmacie Trougout,,35.1806584,-3.771969
MA-01-051-1107,Bni Abdellah,pharmacy,pharmacie,Pharmacie Bni Ammart,,34.8105734,-4.1565652
MA-01-051-1107,Bni Abdellah,pharmacy,pharmacie,Pharmacie Allal ben Abdellah,,34.0334033,-5.0072906
MA-01-051-1107,Bni Abdellah,pharmacy,pharmacie,Pharmacie La Résidence,,33.5722875,-7.5869925
MA-01-051-1107,Bni Abdellah,pharmacy,pharmacie,Pharmacie Hadjalla Mourad,,36.5014793,2.8484306
MA-01-051-1107,Bni Abdellah,pharmacy,pharmacie,E Parapharmacie,,35.2505996,-3.949535
MA-01-051-1107,Bni Abdellah,pharmacy,pharmacie,Pharmacie Al Moustachfa,,35.2416005,-3.9386372
MA-01-051-1107,Bni Abdellah,pharmacy,pharmacie,Pharmacie Hassan 2 صيدلية الحسن الثاني,,32.7707034,-6.3842328
MA-01-051-1107,Bni Abdellah,pharmacy,pharmacie,Pharmacie Allal Ben Abdellah,,32.9994775,-7.6241319
MA-01-051-1107,Bni Abdellah,pharmacy,pharmacie,Pharmacie Avicenne,,35.2478162,-3.9329211
MA-01-051-1107,Bni Abdellah,pharmacy,pharmacie,Pharmacie EL KHAIR,,35.2489522,-3.9477061
MA-01-051-1107,Bni Abdellah,pharmacy,pharmacie,Pharmacie Tarik Bnou Ziad,,35.1357777,-3.8588571
MA-01-051-1107,Bni Abdellah,pharmacy,pharmacie,Pharmacie BADES,,35.1454522,-3.849707
MA-01-051-1107,Bni Abdellah,pharmacy,pharmacie,Pharmacie Noumidia,,35.2390828,-3.9274532
MA-01-051-1107,Bni Abdellah,pharmacy,pharmacie,صيدلية اجدير,,35.1946682,-3.9163166
MA-01-051-1107,Bni Abdellah,pharmacy,pharmacie,Pharmacie Hôpital Senhaja,,34.936075,-4.313974
MA-01-051-1107,Bni Abdellah,pharmacy,pharmacie,Parapharmacie Al Yossre,,35.2482906,-3.9341172
MA-01-051-1107,Bni Abdellah,pharmacy,pharmacie,Pharmacie Pasteur,,35.2403014,-3.9286651
MA-01-051-1107,Bni Abdellah,pharmacy,pharmacie,Pharmacie Almasjid,,35.1490574,-3.8493427
MA-01-051-1107,Bni Abdellah,pharmacy,pharmacie,Pharmacie Al Houda,,35.2515624,-3.9406999
MA-01-051-1107,Bni Abdellah,pharmacy,pharmacie,Pharmacie Al Hoceima,,35.24975,-3.9364904
MA-01-051-1107,Bni Abdellah,pharmacy,pharmacie,صيدلية المركزية,,35.1469116,-3.8494946
MA-01-051-1107,Bni Abdellah,pharmacy,pharmacie,Pharmacie & ParaPharmacie Bahmad,,33.5722875,-7.5869925
MA-01-051-1107,Bni Abdellah,pharmacy,pharmacie,Pharmacie Nibrass,,32.3536424,-6.3443246
MA-01-051-1107,Bni Abdellah,pharmacy,pharmacie,Pharmacie Bin Elouidane,,32.336179,-6.355309
MA-01-051-1107,Bni Abdellah,pharmacy,pharmacie,Pharmacie Calabonita,,35.233587,-3.9273193
MA-01-051-1107,Bni Abdellah,pharmacy,pharmacie,صيدلية درب مولاي الشريف - Pharmacie derb moulay cherif,,31.8008346,-7.1513478
MA-01-051-1107,Bni Abdellah,pharmacy,pharmacie,Pharmacie bnimhmed,,33.8825629,-5.5638498
MA-01-051-1107,Bni Abdellah,pharmacy,pharmacie,Pharmacie Al Jadida,,34.9366993,-4.3161185
MA-01-051-1107,Bni Abdellah,pharmacy,pharmacie,Pharmacie Al Baraka,,35.2440522,-3.9538612
MA-01-051-1107,Bni Abdellah,pharmacy,pharmacie,Pharmacie Thaziri,,35.1425346,-3.8491622
MA-01-051-1107,Bni Abdellah,pharmacy,pharmacie,Pharmacie Anoual,,35.2413885,-3.9276874
MA-01-051-1107,Bni Abdellah,pharmacy,pharmacie,Pharmacie El Wafa,,35.240449,-3.9337191
MA-01-051-1107,Bni Abdellah,pharmacy,pharmacie,Pharmacie Anissa,,35.2428821,-3.9327197
MA-01-051-1107,Bni Abdellah,pharmacy,pharmacie,Pharmacie Cala Bonita,,35.2446497,-3.9318118
MA-01-051-1107,Bni Abdellah,pharmacy,pharmacie,PHARMACIE MANARA,,35.2546171,-3.9284265
MA-01-051-1107,Bni Abdellah,pharmacy,pharmacie,Safa,,35.1893489,-3.8999013
MA-01-051-1107,Bni Abdellah,pharmacy,pharmacie,Pharmacie Benchellal,,35.1728739,-2.9307018
MA-01-051-1107,Bni Abdellah,pharmacy,pharmacie,Pharmacie badr,,34.5835899,-6.1665341
MA-01-051-1107,Bni Abdellah,pharmacy,pharmacie,Pharmacie Centrale du Rif,,35.2410405,-3.9307545
MA-01-051-1107,Bni Abdellah,pharmacy,pharmacie,Pharmacie Granada,,35.2484746,-3.9348541
MA-01-051-1107,Bni Abdellah,pharmacy,pharmacie,Pharmacie El Mossalla,,34.9246841,-2.3233571
MA-01-051-1107,Bni Abdellah,pharmacy,pharmacie,Dr. Mounya Tahiri,,35.239229,-3.927451
MA-01-051-1107,Bni Abdellah,pharmacy,pharmacie,Pharmacie Fouad,,35.2390705,-3.9374379
MA-01-051-1107,Bni Abdellah,pharmacy,pharmacie,Pharmacie Al Khouzama,,35.145217,-3.8527035
MA-01-051-1107,Bni Abdellah,pharmacy,pharmacie,Pharmacie Imzouren,,35.145893,-3.8502797
MA-01-051-1107,Bni Abdellah,pharmacy,pharmacie,Pharmacie Al Manzah,,35.2448426,-3.9336798
MA-01-051-1107,Bni Abdellah,pharmacy,pharmacie,Pharmacie Alouahda,,35.1495245,-3.8471386
MA-01-051-1107,Bni Abdellah,pharmacy,pharmacie,Pharmacie de L'Hôpital,,35.1755788,-2.9341376
MA-01-051-1107,Bni Abdellah,pharmacy,pharmacie,Pharmacie contro,,34.9442335,-4.3189665
MA-01-051-1107,Bni Abdellah,pharmacy,pharmacie,Pharmacie Al Hilal,,35.2520029,-3.9343503
MA-01-051-1107,Bni Abdellah,pharmacy,pharmacie,Pharmacie Commerciale,,33.2285867,-8.5073219
MA-01-051-1107,Bni Abdellah,pharmacy,pharmacie,Pharmacie Le Port,,35.248337,-3.9318293
MA-01-051-1107,Bni Abdellah,school,école,Ecole Primaire Allal Ben Abdellah,"HC99+4F2, Casablanca 20320",33.5677749,-7.5813674
MA-01-051-1107,Bni Abdellah,school,école,École bni fdal,"8PV9+M6, Beni Fdal",34.3441242,-6.2818821
MA-01-051-1107,Bni Abdellah,school,école,école beni abdellah,"PXJ3+J24, P5304, Beni Abdellah Tabouda",34.7315105,-5.0474124
MA-01-051-1107,Bni Abdellah,school,école,المدرسة الابتدائية علال بن عبد الله,"FF5W+3QM, Mediouna",33.457701,-7.5030669
MA-01-051-1107,Bni Abdellah,school,école,Ctre Commune Beni Abdellah,,35.0573348,-4.0733783
MA-01-051-1107,Bni Abdellah,school,école,Lycée ABDELLAH EL AROUI,,33.5571492,-7.380707
MA-01-051-1107,Bni Abdellah,school,école,École Bni Khallad,"CRGX+34P, Beni Khallad",34.4252109,-4.1521856
MA-01-051-1107,Bni Abdellah,school,école,École Allal Ben Abdellah,,33.6396502,-5.5940598
MA-01-051-1107,Bni Abdellah,school,école,Groupe Scolaire Benabdallah,"Lotissement Yasmine, route de Casablanca, Marrakesh 40020",34.6770625,-4.007562500000001
MA-01-051-1107,Bni Abdellah,school,école,Go école,,33.5722875,-7.5869925
MA-01-051-1107,Bni Abdellah,school,école,Institution Mohamed Benabdallah l Témara,"Avenue du caire rue masrour témara centre témara, Rabat",34.9159375,-3.9243125
MA-01-051-1107,Bni Abdellah,school,école,École primaire Bni Mahcen,P5425,35.156062500000004,-3.9524375000000003
MA-01-051-1107,Bni Abdellah,school,école,École Mohamed Ben Abdellah,Salé 11070,35.0540625,-3.7963125
MA-01-051-1107,Bni Abdellah,school,école,Ecole Bni Meskine,"GQ8Q+7W8, El Borouj",32.5156725,-7.2101814
MA-01-051-1107,Bni Abdellah,school,école,ecole abdellah bencherki,"H4VW+77W, Koudia",32.5932467,-8.8543038
MA-01-051-1107,Bni Abdellah,school,école,SKOLAR,,31.8008346,-7.1513478
MA-01-051-1107,Bni Abdellah,school,lycée,Lycée Prince Moulay Abdellah,"H96P+MG3, Casablanca",33.5616492,-7.613699
MA-01-051-1107,Bni Abdellah,school,lycée,Lycée abdellah el aroui,,33.5632507,-7.3763803
MA-01-051-1107,Bni Abdellah,school,lycée,Lycée Abdellah Alaayachi,,33.532294,-7.6425205
MA-01-051-1107,Bni Abdellah,school,lycée,Lycee Abdellah IBRAHIM_2,Nouvelle Lahraouine,35.5301875,-4.5248124999999995
MA-01-051-1107,Bni Abdellah,school,lycée,Lycée Allal Ben Abdellah AB,Nouaceur,35.38931249999999,-4.541812500000001
MA-01-051-1107,Bni Abdellah,school,lycée,Lycée Collègial Abdellah Ibrahim,,33.5299067,-7.5236082
MA-01-051-1107,Bni Abdellah,school,lycée,Lycée ABDELLAH EL AROUI,,33.5571492,-7.380707
MA-01-051-1107,Bni Abdellah,supermarket,supermarché,Abdellah,,33.5744655,-7.5259174
MA-01-051-1107,Bni Abdellah,supermarket,supermarché,Supérette épiceries HRI Abdellah:Alimentation Générale متجر بقالة هري عبدالله:تغدية عامة,,33.6152696,-7.4847566
MA-01-051-1107,Bni Abdellah,supermarket,supermarché,Supermarché Nord,,33.6829434,-7.3407813
MA-01-051-1107,Bni Abdellah,supermarket,supermarché,متجر عبدالله للمواد الغذائية,,31.2385893,-6.1261817
MA-01-051-1107,Bni Abdellah,supermarket,supermarché,Epicerie,,31.4188801,-8.388927
MA-01-051-1107,Bni Abdellah,supermarket,supermarché,Market Bni Moussi,,34.7224224,-2.2945467
MA-01-051-1107,Bni Abdellah,supermarket,supermarché,Palace Supermarket,,35.2529896,-3.9345803
MA-01-051-1107,Bni Abdellah,supermarket,supermarché,Grocery store Abdellah fahem,,30.223743,-9.5374502
MA-01-051-1107,Bni Abdellah,supermarket,épicerie,Abdellah,,33.5744655,-7.5259174
MA-01-051-1107,Bni Abdellah,supermarket,épicerie,Épicerie Abdallah,,33.5559579,-7.5809579
MA-01-051-1107,Bni Abdellah,supermarket,épicerie,Epicerie abdellah bloc C,,33.5511843,-7.5756316
MA-01-051-1107,Bni Abdellah,supermarket,épicerie,Supérette épiceries HRI Abdellah:Alimentation Générale متجر بقالة هري عبدالله:تغدية عامة,,33.6152696,-7.4847566
MA-01-051-1107,Bni Abdellah,supermarket,épicerie,Épicerie Salah mol lhanout hay rmila,,33.5578056,-7.6005278
MA-01-051-1107,Bni Abdellah,supermarket,épicerie,متجر طحطاح,,35.052807,-4.0703391
MA-01-051-1107,Bni Abdellah,supermarket,épicerie,Ferme Bio abdellah,,33.497166,-7.8142656
MA-01-051-1107,Bni Abdellah,supermarket,épicerie,Abdellah épicerie,,33.5768136,-7.6434506
MA-01-051-1107,Bni Abdellah,supermarket,épicerie,متجر الادريسي,,35.0526198,-4.0703881
MA-01-051-1107,Bni Abdellah,tourist_attraction,site touristique,Ctre Commune Beni Abdellah,,35.0573348,-4.0733783
MA-01-051-1107,Bni Abdellah,tourist_attraction,site touristique,Station touristique Agblo Noudain El Ghshoua,,32.531078,-6.1317169
MA-01-051-1107,Bni Abdellah,tourist_attraction,site touristique,محج شلال عين القصب,Ain Laqsab,34.584312499999996,-4.003937499999999
MA-01-051-1107,Bni Abdellah,tourist_attraction,site touristique,عين الدخلة,,33.6570291,-7.0093206
MA-01-051-1107,Bni Abdellah,tourist_attraction,site touristique,Ain Asserdoune,,32.3250992,-6.3356982
MA-01-051-1107,Bni Abdellah,tourist_attraction,monument,Monument battlefield of Annual نصب تذكاري معركة انوال,,35.1374199,-3.6004787
MA-01-051-1107,Bni Abdellah,tourist_attraction,monument,Castle of Béni Mellal,,32.3246584,-6.3375213
MA-01-051-1107,Bni Abdellah,place_of_worship,mosquée,Mosquée Abdullah Bnou Abbas,"HFRF+396, Casablanca 20250",33.5901564,-7.5266148
MA-01-051-1107,Bni Abdellah,place_of_worship,mosquée,Mosquée Qobaa,"JF57+J74, Av. Abdelhamid Ben Badis, Casablanca 20250",33.6090183,-7.5367969
MA-01-051-1107,Bni Abdellah,place_of_worship,mosquée,Quba Mosque مسجد قباء,"HG27+RPX, Bd Annakhil, Tit Mellil",33.5521114,-7.4856484
MA-01-051-1107,Bni Abdellah,place_of_worship,mosquée,مسجد عبد الله ابن عباس,"G9VQ+3G8, Casablanca",33.5426583,-7.6111727
MA-01-051-1107,Bni Abdellah,place_of_worship,mosquée,مسجد التوبة + مسجد النساء ( دوار ولاد سيدي عبد النبي ),P3301,34.60081249999999,-4.4159375
MA-01-051-1107,Bni Abdellah,place_of_worship,mosquée,‏مسجد سيدنا عبد الله بن مسعود,QQH8+Q7C,33.7794482,-7.2343604
MA-01-051-1107,Bni Abdellah,place_of_worship,mosquée,Mosqué hassan bno tabit douar jouala,P3044,35.3209375,-3.6454375
MA-01-051-1107,Bni Abdellah,place_of_worship,mosquée,Tamezguida 'n Beni Abdellah,"3W3J+69M, N2, Ctre Commune Beni Abdellah",35.0530809,-4.0690801
MA-01-051-1107,Bni Abdellah,place_of_worship,mosquée,Mosquée Bni Layeth,,35.2949481,-5.3974124
MA-01-051-1107,Bni Abdellah,place_of_worship,mosquée,Mosquée Bennabete,,33.6676414,-7.2507495
MA-01-051-1107,Bni Abdellah,place_of_worship,mosquée,Mosque Ait Abdellah,"8XRV+C54, N10, Boumalne Dades",31.3410238,-6.0070571
MA-01-051-1107,Bni Abdellah,place_of_worship,mosquée,مسجد السويلبات,"MMJ2+RPR, Beni Yakhlef",33.6821026,-7.3482464
MA-01-051-1107,Bni Abdellah,government_office,administration,Commune Rurale Beni Abdellah,,35.0521096,-4.0708933
MA-01-051-1107,Bni Abdellah,government_office,administration,Ctre Commune Beni Abdellah,,35.0573348,-4.0733783
MA-01-051-1107,Bni Abdellah,government_office,administration,Caidat,,35.0524596,-4.0715209
MA-01-051-1107,Bni Abdellah,government_office,administration,Bni Abdallah,,35.0481853,-4.0593255
MA-01-051-1107,Bni Abdellah,government_office,administration,بريد بني عبد الله,,35.0523684,-4.0701414
MA-01-051-1109,Bni Hadifa,restaurant,restaurant,Café AZOUGAGH,,35.0218124,-4.1394636
MA-01-051-1109,Bni Hadifa,restaurant,restaurant,Café Dahman,"P5207, Bni Hadifa",35.0213125,-4.1425625
MA-01-051-1109,Bni Hadifa,restaurant,restaurant,Restaurant El moussaoui,,35.0222301,-4.140425
MA-01-051-1109,Bni Hadifa,restaurant,restaurant,Café haj saddik,,35.0226328,-4.1416393
MA-01-051-1109,Bni Hadifa,restaurant,restaurant,Café Jawhara,"2VC4+PWX, P5207, Bni Hadifa",35.0221059,-4.1425562
MA-01-051-1109,Bni Hadifa,restaurant,restaurant,Gusteau Food,Beni Yakhlef,34.684312500000004,-4.348437499999999
MA-01-051-1109,Bni Hadifa,restaurant,restaurant,مطعم عياد,"2VC5+Q85, N2, Bni Hadifa",35.0218978,-4.1416335
MA-01-051-1109,Bni Hadifa,restaurant,restaurant,Snack salim,,35.0217789,-4.1403997
MA-01-051-1109,Bni Hadifa,restaurant,restaurant,Café Ibrahimi,,35.0221356,-4.1414709
MA-01-051-1109,Bni Hadifa,restaurant,restaurant,Café la gare,,35.0225616,-4.1422515
MA-01-051-1109,Bni Hadifa,restaurant,restaurant,Café Moh n' Saleh,,35.023054,-4.1441403
MA-01-051-1109,Bni Hadifa,restaurant,restaurant,Bni hdifa,"2VC6+X5J, Bni Hadifa",35.0224601,-4.1396094
MA-01-051-1109,Bni Hadifa,restaurant,restaurant,Restaurant Hiati,"Route régionale R305 ,zone industrielle, 13000",34.5980625,-4.149312500000001
MA-01-051-1109,Bni Hadifa,restaurant,restaurant,restaurant ain kadid,"H75G+99G, boâza",33.5584431,-7.72405
MA-01-051-1109,Bni Hadifa,restaurant,restaurant,Iyaziden بائع الدجاج,"2VC4+XW6, N2, Bni Hadifa",35.022425,-4.1432917
MA-01-051-1109,Bni Hadifa,restaurant,restaurant,CAFE RESTAURANT BABCA,"9J55+GCJ, Taddarte",31.3588377,-7.3914848
MA-01-051-1109,Bni Hadifa,restaurant,restaurant,البيك,"2VC5+QHV, Bni Hadifa",35.0219791,-4.141063
MA-01-051-1109,Bni Hadifa,restaurant,restaurant,مقهي اولاد ادريس,Bni Hadifa,35.0216875,-4.1386875
MA-01-051-1109,Bni Hadifa,restaurant,restaurant,HD d,"MW8H+93R, Laayoune Ain Tizgha",33.6659861,-7.0723592
MA-01-051-1109,Bni Hadifa,restaurant,restaurant,Café Arena,"2VC4+XRP, Haifa Street, Kasba Tadla",35.0224741,-4.1429309
MA-01-051-1109,Bni Hadifa,restaurant,restaurant,O'darna,"Quartier, Béni Mellal",35.33043749999999,-4.3719375
MA-01-051-1109,Bni Hadifa,restaurant,restaurant,Snack Oujdi - سناك الوجدي,"MMP6+V7V, Beni Yakhlef",33.6872472,-7.3393258
MA-01-051-1109,Bni Hadifa,restaurant,restaurant,Café Hbibi hassan,"3QHP+M95 Unnamed Road, Senada",35.0791402,-4.2140026
MA-01-051-1109,Bni Hadifa,restaurant,restaurant,Bni hdifa,"2VC6+X5J, Bni Hadifa",35.0224601,-4.1396094
MA-01-051-1109,Bni Hadifa,restaurant,restaurant,Snack Sayouti,"MMM6+X68, Beni Yakhlef",33.6848797,-7.3396872
MA-01-051-1109,Bni Hadifa,restaurant,restaurant,Chez AZZEDDINE,"6644+H2F, Ahdid",35.2064341,-3.7949388
MA-01-051-1109,Bni Hadifa,restaurant,restaurant,Café Khali Mekki,,35.07378,-3.9613257
MA-01-051-1109,Bni Hadifa,restaurant,restaurant,مطعم النية,"WMPP+677, Targuist",34.9354027,-4.3145623
MA-01-051-1109,Bni Hadifa,restaurant,restaurant,Crème de Paris,,33.6845535,-7.3395626
MA-01-051-1109,Bni Hadifa,restaurant,restaurant,Café Restaurant Panoramique,"6V4V+8XJ, Sammar",35.205847,-4.1051059
MA-01-051-1109,Bni Hadifa,restaurant,restaurant,Café & Restaurant Mimoun,"5P93+XG2, Peñón de Vélez de la Gomera",35.1698977,-4.2962362
MA-01-051-1109,Bni Hadifa,restaurant,restaurant,HD d,"MW8H+93R, Laayoune Ain Tizgha",33.6659861,-7.0723592
MA-01-051-1109,Bni Hadifa,restaurant,restaurant,Cafe Marbella,"4VR8+5G9, N16, Rouadi",35.1396454,-4.1363136
MA-01-051-1109,Bni Hadifa,restaurant,restaurant,Café tarik,Beni Hriza Rd,35.093937499999996,-4.2185625
MA-01-051-1109,Bni Hadifa,restaurant,restaurant,Iyaziden بائع الدجاج,"2VC4+XW6, N2, Bni Hadifa",35.022425,-4.1432917
MA-01-051-1109,Bni Hadifa,restaurant,restaurant,ste calairis plaza,"B.P 53 DOUAR TALZDA COMMUNE RURALE, Bni Boufrah 32102",35.1160625,-4.3154375
MA-01-051-1109,Bni Hadifa,restaurant,restaurant,Restaurant Zaouiat,"P5207, Zaouiat Sidi Abdelkader",34.9171875,-4.1283125
MA-01-051-1109,Bni Hadifa,restaurant,restaurant,CAFE TAHTAH,"3W3H+4W6, Ctre Commune Beni Abdellah",35.0527929,-4.0702293
MA-01-051-1109,Bni Hadifa,restaurant,restaurant,مقهى الشيخ,"2PX5+5F, Abahyatene",35.0479911,-4.2912722
MA-01-051-1109,Bni Hadifa,restaurant,restaurant,مقهى حمو Cafe Hammo,Rouadi,35.1399375,-4.135187500000001
MA-01-051-1109,Bni Hadifa,restaurant,restaurant,Family Coffee,"P5205, Khmiss Beni Boufrah 32102",35.0998125,-4.3100625
MA-01-051-1109,Bni Hadifa,restaurant,restaurant,CAFE TCHAIF,"WPV2+8Q3 Martaha, Sidi Boutmim",34.9432669,-4.2980632
MA-01-051-1109,Bni Hadifa,restaurant,restaurant,Café Aboudhabi Sport,"WMVG+GR9, Targuist",34.9437779,-4.3229011
MA-01-051-1109,Bni Hadifa,restaurant,restaurant,البيك,"2VC5+QHV, Bni Hadifa",35.0219791,-4.141063
MA-01-051-1109,Bni Hadifa,restaurant,restaurant,La Villa Restaurant Lounge,"Rn8, km 4, route de marrakech, Béni Mellal 23200",35.3158125,-4.3929375
MA-01-051-1109,Bni Hadifa,restaurant,restaurant,Pizzeria Senhaja ملبنة صهاجة,"Unnamed Road, Targuist",34.9388125,-4.3173125
MA-01-051-1109,Bni Hadifa,restaurant,restaurant,Pizzeria Mamaria,,33.6893835,-7.3371626
MA-01-051-1109,Bni Hadifa,restaurant,restaurant,مقهي اولاد ادريس,Bni Hadifa,35.0216875,-4.1386875
MA-01-051-1109,Bni Hadifa,restaurant,restaurant,Café & Restaurant Al Khayma,"Résidence El Haje Ben Yassine Jnane Edalia, Avenue Hassan 2, Bouznika 13100",34.7861875,-4.1680625
MA-01-051-1109,Bni Hadifa,restaurant,restaurant,طاكوس,"2VC7+X4M, Bni Hadifa",35.0224621,-4.1372045
MA-01-051-1109,Bni Hadifa,restaurant,restaurant,Chez Mounir,Ouzoud,35.0141875,-3.7193125
MA-01-051-1109,Bni Hadifa,restaurant,restaurant,Café Panoramique Taoussarte,6V4W+86J,35.205836,-4.1044798
MA-01-051-1109,Bni Hadifa,restaurant,restaurant,قهوة الحديقة,"Maroc, Targuist",34.9368125,-4.318687499999999
MA-01-051-1109,Bni Hadifa,restaurant,restaurant,دجاج قسير,"3W2H+XHW, Ctre Commune Beni Abdellah",35.0524957,-4.0710349
MA-01-051-1109,Bni Hadifa,restaurant,restaurant,Cafe all akhawaine,,33.2167753,-6.2579839
MA-01-051-1109,Bni Hadifa,restaurant,restaurant,Café Arena,"2VC4+XRP, Haifa Street, Kasba Tadla",35.0224741,-4.1429309
MA-01-051-1109,Bni Hadifa,restaurant,restaurant,Hamid Sandwich,Targuist,34.93618749999999,-4.3163125
MA-01-051-1109,Bni Hadifa,restaurant,restaurant,Café Nabigh,"R5QX+F2X Municipalité de Hattane, Hattane",32.8389035,-6.802363
MA-01-051-1109,Bni Hadifa,restaurant,restaurant,Snack Bades,"Unnamed Road, Targuist",34.937687499999996,-4.3184375
MA-01-051-1109,Bni Hadifa,restaurant,restaurant,Al Alami cafe,"4M2Q+7QP, P5205, Khmiss Beni Boufrah",35.100702,-4.3105422
MA-01-051-1109,Bni Hadifa,restaurant,restaurant,Cafe Al Saïda مقهى السعادة,,35.1430732,-3.986916
MA-01-051-1109,Bni Hadifa,restaurant,restaurant,Snack sa7bi gordo,"WMPP+P35, Unnamed Rd, Targuist",34.936826,-4.3145568
MA-01-051-1109,Bni Hadifa,restaurant,restaurant,Snack EKHWAN EL KOUKHO,"WMPP+237, Avenue TIZIFRI, Targuist",34.9350258,-4.3148347
MA-01-051-1109,Bni Hadifa,restaurant,restaurant,Coopérative Fan Rouadi pour la boulangerie et pâtisserie,"4VR8+5G9, Rouadi",35.1404292,-4.1335662
MA-01-051-1109,Bni Hadifa,restaurant,restaurant,Resto JE7A,Targuist,34.9364375,-4.316437499999999
MA-01-051-1109,Bni Hadifa,restaurant,restaurant,café hicham bohali,"3QJP+37P, Kalaat Senada",35.0802022,-4.2143046
MA-01-051-1109,Bni Hadifa,restaurant,restaurant,Station Bni Boufrah,,35.119011,-4.3233991
MA-01-051-1109,Bni Hadifa,restaurant,restaurant,Cafe Boujoun,"4VR8+542, Rouadi",35.1400917,-4.1345299
MA-01-051-1109,Bni Hadifa,restaurant,restaurant,مقهى الحاج الراضى الزياني,,35.0220081,-4.140767
MA-01-051-1109,Bni Hadifa,restaurant,restaurant,Cala iris plaza,N16,35.1186875,-4.3233125
MA-01-051-1109,Bni Hadifa,restaurant,restaurant,Café Bruxelles,"الشارع الرئيسي لجماعة, Rouadi 32006",35.1400625,-4.134062500000001
MA-01-051-1109,Bni Hadifa,restaurant,restaurant,Face Coffee,Béni Mellal,35.3293125,-4.3723125
MA-01-051-1109,Bni Hadifa,restaurant,restaurant,Cafe Hadi,"695P+R8G, Rue Bouali, Ichniwen",35.2095568,-3.614174
MA-01-051-1109,Bni Hadifa,restaurant,restaurant,Cafe Azouz,,35.1009878,-4.3106288
MA-01-051-1109,Bni Hadifa,restaurant,restaurant,Coffe Shop Baigo,"0000, Gîte de Taounil",35.1358125,-4.1983125
MA-01-051-1109,Bni Hadifa,restaurant,restaurant,CAFE NAHASS,"3W3H+3FH, Ctre Commune Beni Abdellah",35.0526849,-4.071276
MA-01-051-1109,Bni Hadifa,restaurant,restaurant,Café nakhil,"4M2Q+MMW, Khmiss Beni Boufrah",35.1017036,-4.311255
MA-01-051-1109,Bni Hadifa,restaurant,restaurant,Cafe & Restaurant Jouhara,,35.1574252,-3.975017
MA-01-051-1109,Bni Hadifa,restaurant,restaurant,Café Azoul☕️ مقهى أزول,,35.1309805,-4.1553764
MA-01-051-1109,Bni Hadifa,restaurant,restaurant,CAFE PARIS,"WMVH+JVM, N2, Targuist",34.9440889,-4.3203268
MA-01-051-1109,Bni Hadifa,restaurant,restaurant,Café Rio,"2VC6+Q38, N2, Bni Hadifa",35.0219033,-4.1398049
MA-01-051-1109,Bni Hadifa,restaurant,restaurant,Beni Boufrah,"4M2Q+3Q6, Bni Boufrah",35.1001614,-4.3106099
MA-01-051-1109,Bni Hadifa,restaurant,restaurant,Café Najim,"2MQX+JVJ, Imahoutene",35.0383637,-4.3007445
MA-01-051-1109,Bni Hadifa,restaurant,restaurant,Cafe fikri,"3QJP+R4, Kalaat Senada",35.0820624,-4.2146226
MA-01-051-1109,Bni Hadifa,restaurant,restaurant,Cafee la belle vue,"4M2Q+6QG, P5205, Khmiss Beni Boufrah",35.1005732,-4.3105388
MA-01-051-1109,Bni Hadifa,restaurant,restaurant,Snak senhaja,"6 Avenue Des FAR, Adminstratif, Targuist",34.9380625,-4.3161875
MA-01-051-1109,Bni Hadifa,restaurant,restaurant,Café nejma,"المسجد المرکزي, Targuist",34.9350625,-4.3154375
MA-01-051-1109,Bni Hadifa,restaurant,restaurant,Café Assalam,"3W2H+VM4, Ctre Commune Beni Abdellah",35.0521424,-4.0707847
MA-01-051-1109,Bni Hadifa,restaurant,restaurant,Café Aswiq,"32GR+4F3, Tamasint",35.0752718,-3.9588198
MA-01-051-1109,Bni Hadifa,restaurant,restaurant,Cafe Ali,"42V7+P2M, N16, Ait Kamara",35.1443373,-3.9874478
MA-01-051-1109,Bni Hadifa,restaurant,restaurant,Café kintou,"RR6R+W59, Bni Ammart",34.8122984,-4.1595032
MA-01-051-1109,Bni Hadifa,restaurant,restaurant,مطعم س حمو,"WMPM+3J3, Targuist",34.9351361,-4.315954
MA-01-051-1109,Bni Hadifa,restaurant,restaurant,Café Abarkan,"32FQ+9MR, Tamasint",35.0734798,-3.9608548
MA-01-051-1109,Bni Hadifa,restaurant,restaurant,Café Picasso,,34.9381814,-4.3192327
MA-01-051-1109,Bni Hadifa,restaurant,restaurant,Café jazzera akhbar,,34.91705,-4.128185
MA-01-051-1109,Bni Hadifa,restaurant,restaurant,Restaurant chez Rachid,"277J+J5H, Ouzoud",32.0139851,-6.7196732
MA-01-051-1109,Bni Hadifa,restaurant,restaurant,cafeteria & comestibles m.ali,"4QPW+CP2 Gîte de, Taounil",35.1360038,-4.2032263
MA-01-051-1109,Bni Hadifa,restaurant,restaurant,بني نصار,"4W9R+XP, Tizi AYACHE",35.1200121,-4.0582193
MA-01-051-1109,Bni Hadifa,restaurant,restaurant,Café tamdawchen,"3MHQ+JRX, Khmiss Beni Boufrah",35.0791053,-4.310389
MA-01-051-1109,Bni Hadifa,restaurant,restaurant,مطعم الخير,"WMPP+C46, Targuist",34.9360448,-4.3147378
MA-01-051-1109,Bni Hadifa,restaurant,restaurant,Snack sandwicherie ABDELRANI,,34.9364518,-4.3160537
MA-01-051-1109,Bni Hadifa,restaurant,restaurant,Cafe & restaurant Shell Targuist 1975,,34.9476459,-4.3060991
MA-01-051-1109,Bni Hadifa,restaurant,restaurant,Restaurant Sahili,,35.1441348,-3.9876595
MA-01-051-1109,Bni Hadifa,restaurant,restaurant,Café Benaissa Mahdad مقهى بنعيسى مهداد,,34.8652344,-3.4578039
MA-01-051-1109,Bni Hadifa,restaurant,restaurant,Café firdaous,,34.9366889,-4.3169752
MA-01-051-1109,Bni Hadifa,restaurant,restaurant,Cafè Les Amis,,34.9374793,-4.3132058
MA-01-051-1109,Bni Hadifa,restaurant,restaurant,Café soper,,35.1758461,-4.1663864
MA-01-051-1109,Bni Hadifa,restaurant,restaurant,Snack-sa7bi-GORDO,,34.9402373,-4.3211309
MA-01-051-1109,Bni Hadifa,restaurant,restaurant,مطعم شعبي,,34.9361917,-4.3141753
MA-01-051-1109,Bni Hadifa,restaurant,restaurant,Benasser مطعم بناصر,,34.9418333,-4.3205513
MA-01-051-1109,Bni Hadifa,restaurant,restaurant,Cafe el khabir - zakariya,,34.93883,-4.3167595
MA-01-051-1109,Bni Hadifa,restaurant,restaurant,Café Arenas,,35.1423185,-3.9905381
MA-01-051-1109,Bni Hadifa,restaurant,restaurant,Snack Amigo,,34.9353454,-4.3154387
MA-01-051-1109,Bni Hadifa,restaurant,restaurant,مقها ابراهيم,,35.0608234,-4.2105199
MA-01-051-1109,Bni Hadifa,restaurant,restaurant,Café Crona,,34.9390592,-4.317523
MA-01-051-1109,Bni Hadifa,restaurant,restaurant,cafe tarik,,35.1253633,-4.0616929
MA-01-051-1109,Bni Hadifa,restaurant,café,Café Dahman,,35.021358,-4.1425052
MA-01-051-1109,Bni Hadifa,restaurant,café,Café haj saddik,,35.0226328,-4.1416393
MA-01-051-1109,Bni Hadifa,restaurant,café,Café Jawhara,,35.0221059,-4.1425562
MA-01-051-1109,Bni Hadifa,restaurant,café,Bni hdifa,,35.0224601,-4.1396094
MA-01-051-1109,Bni Hadifa,restaurant,café,Café AZOUGAGH,,35.0218124,-4.1394636
MA-01-051-1109,Bni Hadifa,restaurant,café,Café Moh n' Saleh,,35.023054,-4.1441403
MA-01-051-1109,Bni Hadifa,restaurant,café,Café Ibrahimi,,35.0221356,-4.1414709
MA-01-051-1109,Bni Hadifa,restaurant,café,Café la gare,,35.0225616,-4.1422515
MA-01-051-1109,Bni Hadifa,restaurant,café,Espace MK Cafe,,35.1124769,-3.8414469
MA-01-051-1109,Bni Hadifa,restaurant,café,Café Arena,,35.0224741,-4.1429309
MA-01-051-1109,Bni Hadifa,restaurant,café,Cafe PHÉNIX,,33.6845728,-7.3396311
MA-01-051-1109,Bni Hadifa,restaurant,café,Cefé noor al madina,,33.6212257,-7.4449905
MA-01-051-1109,Bni Hadifa,restaurant,café,Cafe benali,,35.1289813,-4.3235872
MA-01-051-1109,Bni Hadifa,restaurant,café,مقهي اولاد ادريس,,35.0216403,-4.1386737
MA-01-051-1109,Bni Hadifa,restaurant,café,Café Rio,,35.0219033,-4.1398049
MA-01-051-1109,Bni Hadifa,restaurant,café,Restaurant El moussaoui,,35.0222301,-4.140425
MA-01-051-1109,Bni Hadifa,restaurant,café,مقهى الحاج الراضى الزياني,,35.0220081,-4.140767
MA-01-051-1109,Bni Hadifa,restaurant,café,Café Névé مقهى نيفي,,35.1088009,-3.8419366
MA-01-051-1109,Bni Hadifa,restaurant,café,Snack salim,,35.0217789,-4.1403997
MA-01-051-1109,Bni Hadifa,restaurant,café,CAFE KASSAB,,33.5004523,-7.8714572
MA-01-051-1109,Bni Hadifa,restaurant,café,Café Khali Mekki,,35.07378,-3.9613257
MA-01-051-1109,Bni Hadifa,restaurant,café,"À proximité de Bd Achahid El Arbi El Bennay, Casablanca",,33.5512399,-7.5736705
MA-01-051-1109,Bni Hadifa,restaurant,café,CAFI AGHBOUCHI,,34.1391819,-4.9690524
MA-01-051-1109,Bni Hadifa,restaurant,café,Café Tanjawi,,35.1014976,-3.8422031
MA-01-051-1109,Bni Hadifa,restaurant,café,CAFE TCHAIF,,34.9432669,-4.2980632
MA-01-051-1109,Bni Hadifa,restaurant,café,مقه,,34.6413892,-5.2415963
MA-01-051-1109,Bni Hadifa,restaurant,café,Espace Diamant Vert,,35.104496,-3.8531851
MA-01-051-1109,Bni Hadifa,restaurant,café,CAFE KASSAB,,33.5004523,-7.8714572
MA-01-051-1109,Bni Hadifa,restaurant,café,مقهى الشيخ,,35.0479911,-4.2912722
MA-01-051-1109,Bni Hadifa,restaurant,café,Cafe Eddahbi,,32.7741017,-7.5118633
MA-01-051-1109,Bni Hadifa,restaurant,café,SnaCala - Alaoui-Sossi Mohammed,,35.1493668,-4.3770758
MA-01-051-1109,Bni Hadifa,restaurant,café,Café Espace CLINK,,35.1091854,-3.8456292
MA-01-051-1109,Bni Hadifa,restaurant,café,Café tarik,,35.093932,-4.2185907
MA-01-051-1109,Bni Hadifa,restaurant,café,cafe hmida,,34.324262,-5.7857131
MA-01-051-1109,Bni Hadifa,restaurant,café,Family Coffee,,35.0998604,-4.3100218
MA-01-051-1109,Bni Hadifa,restaurant,café,CAFE TAHTAH,,35.0527929,-4.0702293
MA-01-051-1109,Bni Hadifa,restaurant,café,Espace Bel Haïba,,33.6502837,-7.448655
MA-01-051-1109,Bni Hadifa,restaurant,café,Restaurant Café tidghine ️ ️,,34.8430749,-4.4214332
MA-01-051-1109,Bni Hadifa,restaurant,café,Café Abed lwafi,,35.1135861,-3.9224447
MA-01-051-1109,Bni Hadifa,restaurant,café,Café Ajdir,,35.195469,-3.8945812
MA-01-051-1109,Bni Hadifa,restaurant,café,Café Arena,,35.0224741,-4.1429309
MA-01-051-1109,Bni Hadifa,restaurant,café,مقهى بني مطير,,33.752562,-5.485603
MA-01-051-1109,Bni Hadifa,restaurant,café,مقهي اولاد ادريس,,35.0216403,-4.1386737
MA-01-051-1109,Bni Hadifa,restaurant,café,Café Nadir,,35.1820502,-3.9946484
MA-01-051-1109,Bni Hadifa,restaurant,café,Café hanati,,33.490148,-7.1032341
MA-01-051-1109,Bni Hadifa,restaurant,café,Snack JADO PRO MAX,,35.1024469,-3.8404357
MA-01-051-1109,Bni Hadifa,restaurant,café,Cafe dania bni sidal,,35.1822708,-3.0425977
MA-01-051-1109,Bni Hadifa,restaurant,café,Cafe Hadi,,35.2095568,-3.614174
MA-01-051-1109,Bni Hadifa,restaurant,café,Cafe Marbella,,35.1396454,-4.1363136
MA-01-051-1109,Bni Hadifa,restaurant,café,El Haddioui Coffee,,33.496344,-7.5377567
MA-01-051-1109,Bni Hadifa,restaurant,café,café mahmoudia,,33.7507335,-5.4874448
MA-01-051-1109,Bni Hadifa,restaurant,café,Al Alami cafe,,35.100702,-4.3105422
MA-01-051-1109,Bni Hadifa,restaurant,café,مقهى حمو Cafe Hammo,,35.1398992,-4.1352319
MA-01-051-1109,Bni Hadifa,restaurant,café,Café Nabigh,,32.8389035,-6.802363
MA-01-051-1109,Bni Hadifa,restaurant,café,café hicham bohali,,35.0802022,-4.2143046
MA-01-051-1109,Bni Hadifa,restaurant,café,Café nakhil,,35.1017036,-4.311255
MA-01-051-1109,Bni Hadifa,restaurant,café,Café Hiba & Hadil,,33.9061654,-5.482173
MA-01-051-1109,Bni Hadifa,restaurant,café,قهوة الحديقة,,34.9368084,-4.3187189
MA-01-051-1109,Bni Hadifa,restaurant,café,Cafe bahaeddine,,32.7741317,-7.7730286
MA-01-051-1109,Bni Hadifa,restaurant,café,Café bengrich,,33.7301405,-5.5769662
MA-01-051-1109,Bni Hadifa,restaurant,café,Café Restaurant Panoramique,,35.205847,-4.1051059
MA-01-051-1109,Bni Hadifa,restaurant,café,Snack Beni Boufrah,,35.1019209,-4.31085
MA-01-051-1109,Bni Hadifa,restaurant,café,Café El Khalfaouy,,33.6651085,-3.6226599
MA-01-051-1109,Bni Hadifa,restaurant,café,Cafe Boujoun,,35.1400917,-4.1345299
MA-01-051-1109,Bni Hadifa,restaurant,café,Café - Restaurant Tizifri (Zarkat),,34.9112892,-4.3093926
MA-01-051-1109,Bni Hadifa,restaurant,café,Cafe Al Saïda مقهى السعادة,,35.1430732,-3.986916
MA-01-051-1109,Bni Hadifa,restaurant,café,هتان كوفي,,33.5229861,-7.4047108
MA-01-051-1109,Bni Hadifa,restaurant,café,Café Chbani,,33.2903372,-5.3380627
MA-01-051-1109,Bni Hadifa,restaurant,café,مقهى ستيتو,,35.0836953,-4.3857776
MA-01-051-1109,Bni Hadifa,restaurant,café,مقهى الحاج الراضى الزياني,,35.0220081,-4.140767
MA-01-051-1109,Bni Hadifa,restaurant,café,Café Bianco,,34.370633,-5.214084
MA-01-051-1109,Bni Hadifa,restaurant,café,Café tamdawchen,,35.0791053,-4.310389
MA-01-051-1109,Bni Hadifa,restaurant,café,Cafe diamonde,,35.1579076,-3.9788455
MA-01-051-1109,Bni Hadifa,restaurant,café,Café kintou,,34.8122984,-4.1595032
MA-01-051-1109,Bni Hadifa,restaurant,café,Cafe fikri,,35.0820624,-4.2146226
MA-01-051-1109,Bni Hadifa,restaurant,café,Café Panoramique Taoussarte,,35.205836,-4.1044798
MA-01-051-1109,Bni Hadifa,restaurant,café,Café Najim,,35.0383637,-4.3007445
MA-01-051-1109,Bni Hadifa,restaurant,café,cafe beyadri,,34.9353198,-4.3160083
MA-01-051-1109,Bni Hadifa,restaurant,café,Café Al Markz,,35.0973543,-3.8391171
MA-01-051-1109,Bni Hadifa,restaurant,café,Cafe Azouz,,35.1009878,-4.3106288
MA-01-051-1109,Bni Hadifa,restaurant,café,Café Rio,,35.0219033,-4.1398049
MA-01-051-1109,Bni Hadifa,restaurant,café,Coffe Shop Baigo,,35.1358608,-4.1983118
MA-01-051-1109,Bni Hadifa,restaurant,café,Salle des fêtes AFRAH CHHAYHAY & CAFÉ,,35.0845921,-3.8268964
MA-01-051-1109,Bni Hadifa,restaurant,café,Café Aswiq,,35.0752718,-3.9588198
MA-01-051-1109,Bni Hadifa,restaurant,café,مقهى المهدي وشت,,34.3294277,-6.3799476
MA-01-051-1109,Bni Hadifa,restaurant,café,Café Azoul☕️ مقهى أزول,,35.1309805,-4.1553764
MA-01-051-1109,Bni Hadifa,restaurant,café,Restaurant El moussaoui,,35.0222301,-4.140425
MA-01-051-1109,Bni Hadifa,restaurant,café,Le Comptoir Café,,33.5869371,-7.5945093
MA-01-051-1109,Bni Hadifa,restaurant,café,CAFE NAHASS,,35.0526849,-4.071276
MA-01-051-1109,Bni Hadifa,restaurant,café,cafeteria & comestibles m.ali,,35.1360038,-4.2032263
MA-01-051-1109,Bni Hadifa,restaurant,café,Cafee la belle vue,,35.1005732,-4.3105388
MA-01-051-1109,Bni Hadifa,restaurant,café,Café Omar ahmimou,,34.1653165,-4.3227448
MA-01-051-1109,Bni Hadifa,restaurant,café,بني نصار,,35.1200121,-4.0582193
MA-01-051-1109,Bni Hadifa,restaurant,café,Café dbiychat,,34.5053407,-5.2463499
MA-01-051-1109,Bni Hadifa,restaurant,café,CAFE PARIS,,34.9440889,-4.3203268
MA-01-051-1109,Bni Hadifa,restaurant,café,Café,,33.5570535,-6.5232969
MA-01-051-1109,Bni Hadifa,restaurant,café,Gusteau Food,,33.6843067,-7.3484191
MA-01-051-1109,Bni Hadifa,restaurant,café,Café nejma,,34.9350077,-4.3153975
MA-01-051-1109,Bni Hadifa,restaurant,café,مقهى دحمان الخمسي,,35.0424989,-4.2658191
MA-01-051-1109,Bni Hadifa,restaurant,café,Cafe anwal,,33.9922193,-3.0376347
MA-01-051-1109,Bni Hadifa,restaurant,café,مقها ابراهيم,,35.0608234,-4.2105199
MA-01-051-1109,Bni Hadifa,restaurant,café,Café Bannani,,34.0570165,-5.520641
MA-01-051-1109,Bni Hadifa,restaurant,café,Station Bni Boufrah,,35.119011,-4.3233991
MA-01-051-1109,Bni Hadifa,restaurant,café,Café soper,,35.1758461,-4.1663864
MA-01-051-1109,Bni Hadifa,restaurant,café,Café firdaous,,34.9366889,-4.3169752
MA-01-051-1109,Bni Hadifa,restaurant,café,Snack salim,,35.0217789,-4.1403997
MA-01-051-1109,Bni Hadifa,restaurant,café,Café Bani,,35.7776197,-5.8368395
MA-01-051-1109,Bni Hadifa,restaurant,café,Café Picasso,,34.9381814,-4.3192327
MA-01-051-1109,Bni Hadifa,restaurant,café,Café Abarkan,,35.0734798,-3.9608548
MA-01-051-1109,Bni Hadifa,restaurant,café,Café Arenas,,35.1423185,-3.9905381
MA-01-051-1109,Bni Hadifa,restaurant,café,Café Assalam,,35.0521424,-4.0707847
MA-01-051-1109,Bni Hadifa,restaurant,café,Café jazzera akhbar,,34.91705,-4.128185
MA-01-051-1109,Bni Hadifa,restaurant,café,CAFE CHABAB,,34.9410429,-4.3209772
MA-01-051-1109,Bni Hadifa,restaurant,café,cafe tarik,,35.1253633,-4.0616929
MA-01-051-1109,Bni Hadifa,restaurant,café,Cafe Ali,,35.1443373,-3.9874478
MA-01-051-1109,Bni Hadifa,restaurant,café,Pizzeria Senhaja ملبنة صهاجة,,34.9387945,-4.317359
MA-01-051-1109,Bni Hadifa,restaurant,café,Café bati,,34.0265479,-5.7955074
MA-01-051-1109,Bni Hadifa,restaurant,café,مقهى جواد,,34.9893874,-4.1690507
MA-01-051-1109,Bni Hadifa,hospital,hôpital,مستوصف بني حذيفة,"2VC4+XW6, N2, Bni Hadifa",35.0224003,-4.142731
MA-01-051-1109,Bni Hadifa,hospital,hôpital,Bni Hadifa,,35.0223967,-4.1421406
MA-01-051-1109,Bni Hadifa,hospital,hôpital,دار الأمومة,"2VF4+45X, Bni Hadifa",35.0228558,-4.1445266
MA-01-051-1109,Bni Hadifa,school,école,Medersat Bni Hdifa,"2VF5+86C Centre, Bni Hadifa",35.023304,-4.141983
MA-01-051-1109,Bni Hadifa,school,école,College Beni Hadifa-إعدادية بني حُدَيفة العَرَبي,,35.0203689,-4.137412
MA-01-051-1109,Bni Hadifa,school,école,AUTO ECOLE SAFAA. (FIKRI),"2VC5+H75, P5207, Bni Hadifa",35.0213899,-4.1417437
MA-01-051-1109,Bni Hadifa,school,école,تعليم السياقة الصفاء,,35.0213797,-4.1417733
MA-01-051-1109,Bni Hadifa,school,lycée,College Beni Hadifa-إعدادية بني حُدَيفة العَرَبي,,35.0203689,-4.137412
MA-01-051-1109,Bni Hadifa,school,lycée,Bni Hadifa,,35.0223967,-4.1421406
MA-01-051-1109,Bni Hadifa,school,lycée,Medersat Bni Hdifa,"2VF5+86C Centre, Bni Hadifa",35.023304,-4.141983
MA-01-051-1109,Bni Hadifa,bank,banque,بريد بنك,,35.0220969,-4.1420898
MA-01-051-1109,Bni Hadifa,bank,banque,"Cash plus bni hadifa ""faddily""",,35.021903,-4.1386737
MA-01-051-1109,Bni Hadifa,bank,banque,Bni Hadifa,,35.0223967,-4.1421406
MA-01-051-1109,Bni Hadifa,bank,banque,البنك الشعبي,,35.0219333,-4.1387651
MA-01-051-1109,Bni Hadifa,bank,banque,Western Union,,35.021826,-4.138629
MA-01-051-1109,Bni Hadifa,supermarket,supermarché,Market Yassin El Aatmioui,,35.0219936,-4.1424695
MA-01-051-1109,Bni Hadifa,supermarket,supermarché,Magasin El idrissi,,35.0218531,-4.1396564
MA-01-051-1109,Bni Hadifa,supermarket,supermarché,Supermarket Aroud Khessam سوبر ماركت عروض الخصم,,35.0209429,-4.1416509
MA-01-051-1109,Bni Hadifa,supermarket,supermarché,بيع الخضر والفواكه عند عزي وشينو,,35.021738,-4.139256
MA-01-051-1109,Bni Hadifa,supermarket,épicerie,مطحنة الحبوب,,35.0212774,-4.1424245
MA-01-051-1109,Bni Hadifa,supermarket,épicerie,Market Yassin El Aatmioui,,35.0219936,-4.1424695
MA-01-051-1109,Bni Hadifa,supermarket,épicerie,Amhaouech,,35.021426,-4.1426746
MA-01-051-1109,Bni Hadifa,supermarket,épicerie,Khalid bouali,,35.0214102,-4.142676
MA-01-051-1109,Bni Hadifa,supermarket,épicerie,Magasin Eddini,,35.0213138,-4.1426457
MA-01-051-1109,Bni Hadifa,place_of_worship,mosquée,Tamezguida n' Omar Ibn Al-Khattab,,35.0221236,-4.1390092
MA-01-051-1109,Bni Hadifa,place_of_worship,mosquée,Mosquée Omar Ibn Al-Khattab,,35.0221236,-4.1390092
MA-01-051-1101,Ait Kamra,restaurant,restaurant,Café Alhussein قهوة الحسين,Ait-Kamara,35.1515625,-3.9798125
MA-01-051-1101,Ait Kamra,restaurant,restaurant,Restaurant Si Ahmed,,35.2405797,-3.9280592
MA-01-051-1101,Ait Kamra,restaurant,restaurant,Espace Mira Mar,,35.2422776,-3.928701
MA-01-051-1101,Ait Kamra,restaurant,restaurant,Cafe Ait Kamara,,35.157049,-3.975901
MA-01-051-1101,Ait Kamra,restaurant,restaurant,NORSAL,,35.2504496,-3.9215287
MA-01-051-1101,Ait Kamra,restaurant,restaurant,Cafe Ait Kamara مقهى أيت قمرة,,35.1495504,-3.9814873
MA-01-051-1101,Ait Kamra,restaurant,restaurant,Casa Bento,,35.2506555,-3.9375597
MA-01-051-1101,Ait Kamra,restaurant,restaurant,Niebla Marina,,35.2503174,-3.9214107
MA-01-051-1101,Ait Kamra,restaurant,restaurant,L’Artiste,,35.2504275,-3.921826
MA-01-051-1101,Ait Kamra,restaurant,restaurant,Cafe diamonde,,35.1579076,-3.9788455
MA-01-051-1101,Ait Kamra,restaurant,restaurant,Shark’s Rock Restaurant,,35.2539691,-3.7604789
MA-01-051-1101,Ait Kamra,restaurant,restaurant,Restaurant Wing Fish,,35.2573894,-3.7587517
MA-01-051-1101,Ait Kamra,restaurant,restaurant,Café Restaurant Al Amal,,35.1865169,-3.994728
MA-01-051-1101,Ait Kamra,restaurant,restaurant,‘T Hoekje Restaurant,,35.2526046,-3.9440478
MA-01-051-1101,Ait Kamra,restaurant,restaurant,restaurant mustafa,,35.1865019,-3.9941667
MA-01-051-1101,Ait Kamra,restaurant,restaurant,Cafe Ali,,35.1443373,-3.9874478
MA-01-051-1101,Ait Kamra,restaurant,restaurant,Restaurant Eatery Al Bab Rif,,35.1561539,-3.9769431
MA-01-051-1101,Ait Kamra,restaurant,restaurant,The Palms,,35.2339711,-3.9230918
MA-01-051-1101,Ait Kamra,restaurant,restaurant,Ossiano,,35.2504476,-3.9211631
MA-01-051-1101,Ait Kamra,restaurant,restaurant,Lunamar Express,,35.2436747,-3.9309636
MA-01-051-1101,Ait Kamra,restaurant,restaurant,Niebla Marina,,35.2503174,-3.9214107
MA-01-051-1101,Ait Kamra,restaurant,restaurant,Restaurant Sun Grill Klay,,35.1553625,-3.8476406
MA-01-051-1101,Ait Kamra,restaurant,restaurant,Restaurant Wing Fish,,35.2573894,-3.7587517
MA-01-051-1101,Ait Kamra,restaurant,restaurant,Cafe Ait Kamara,,35.157049,-3.975901
MA-01-051-1101,Ait Kamra,restaurant,restaurant,Café restaurant MIRA LUNA,,35.1959249,-3.8792452
MA-01-051-1101,Ait Kamra,restaurant,restaurant,Restaurant Zouy,,35.1562705,-3.849805
MA-01-051-1101,Ait Kamra,restaurant,restaurant,Shark’s Rock Restaurant,,35.2539691,-3.7604789
MA-01-051-1101,Ait Kamra,restaurant,restaurant,مطعم الدجاج,,35.1743694,-3.8649193
MA-01-051-1101,Ait Kamra,restaurant,restaurant,Nejma,,35.2106042,-3.9010534
MA-01-051-1101,Ait Kamra,restaurant,restaurant,Ossiano Beach Club,,35.2120319,-3.9027064
MA-01-051-1101,Ait Kamra,restaurant,restaurant,Lunamar Express,,35.2436747,-3.9309636
MA-01-051-1101,Ait Kamra,restaurant,restaurant,Restaurant Rif,,35.2410923,-3.9278284
MA-01-051-1101,Ait Kamra,restaurant,restaurant,La Fabrica,,35.2551913,-3.9353442
MA-01-051-1101,Ait Kamra,restaurant,restaurant,Snack Ibrahim,,35.1935663,-3.9158658
MA-01-051-1101,Ait Kamra,restaurant,restaurant,Resto marhaba,,35.2613901,-3.757696
MA-01-051-1101,Ait Kamra,restaurant,restaurant,Ossiano,,35.2504476,-3.9211631
MA-01-051-1101,Ait Kamra,restaurant,restaurant,Café & Restaurant Royal,,35.2091521,-3.8974576
MA-01-051-1101,Ait Kamra,restaurant,restaurant,Restaurant de mohamed sahil,"6668+W93, Trougout",35.2122524,-3.7840808
MA-01-051-1101,Ait Kamra,restaurant,restaurant,The Palms,"Plage Calabonita, Al Hoceïma 32000",35.233937499999996,-3.9230625000000003
MA-01-051-1101,Ait Kamra,restaurant,restaurant,Café Restaurant Amsoudi,"4535+2CR, Bni Bouayach",35.1026165,-3.8414879
MA-01-051-1101,Ait Kamra,restaurant,restaurant,Regal,Al Hoceïma 32000,35.244437500000004,-3.9309374999999998
MA-01-051-1101,Ait Kamra,restaurant,restaurant,La Terrasse des Oliviers,Ctre Ait Youssef Ou Ali,35.171687500000004,-3.8629375
MA-01-051-1101,Ait Kamra,restaurant,restaurant,اميرة,,35.1475874,-3.8496182
MA-01-051-1101,Ait Kamra,restaurant,restaurant,Boum Burger,,35.2473901,-3.9580031
MA-01-051-1101,Ait Kamra,restaurant,restaurant,Snack Grilladinu,,35.1939203,-3.9104017
MA-01-051-1101,Ait Kamra,restaurant,restaurant,Snack Sidi Abid,,35.2508922,-3.9342974
MA-01-051-1101,Ait Kamra,restaurant,restaurant,‘T Hoekje Restaurant,,35.2526046,-3.9440478
MA-01-051-1101,Ait Kamra,restaurant,restaurant,Café Restaurant Badi,,35.2551875,-3.7601875
MA-01-051-1101,Ait Kamra,restaurant,restaurant,Cafe diamonde,,35.1579076,-3.9788455
MA-01-051-1101,Ait Kamra,restaurant,restaurant,Sandwich Palace,,35.1428389,-3.8531106
MA-01-051-1101,Ait Kamra,restaurant,restaurant,Restaurant Palace,"5522+2C6, Imzouren",35.1498132,-3.848948
MA-01-051-1101,Ait Kamra,restaurant,restaurant,Hôtel Mira Palace,"Hay Mirador Al hoceima Espace Mirador alhoceima, Al Hoceïma 32000",35.2493125,-3.9455625000000003
MA-01-051-1101,Ait Kamra,restaurant,restaurant,Délicafé,,35.2445548,-3.9355255
MA-01-051-1101,Ait Kamra,restaurant,restaurant,Yara Rania,,35.2499909,-3.9239906
MA-01-051-1101,Ait Kamra,restaurant,restaurant,Manger viande hachée,"N 2, 54FP+58P, Ctre Ait Youssef Ou Ali",35.1730804,-3.8642235
MA-01-051-1101,Ait Kamra,restaurant,restaurant,Sandwich Galaxy,"45W2+J8P, Imzouren",35.146587,-3.8491648
MA-01-051-1101,Ait Kamra,restaurant,restaurant,La Belle Vue,,35.2444245,-3.9293076
MA-01-051-1101,Ait Kamra,restaurant,restaurant,Bokidaren,"54JJ+JVH, Al Hoceïma",35.1815646,-3.8677759
MA-01-051-1101,Ait Kamra,restaurant,restaurant,Buena Vista,,35.2491797,-3.9451533
MA-01-051-1101,Ait Kamra,restaurant,restaurant,Wok in Al Hoceima,"63V9+V83, Rue Allal ben Abdellah 14, rue zellaqa, Al Hoceïma 32000",35.2408849,-3.9304972
MA-01-051-1101,Ait Kamra,restaurant,restaurant,MB Food,"62WQ+66Q, Cor maritime de Sabadia, Al Hoceïma",35.2455843,-3.961901
MA-01-051-1101,Ait Kamra,restaurant,restaurant,Mabina SeaFood,"1 Ave Abdelkrim El Khattabi, Al Hoceima 32000",35.2460625,-3.9305624999999997
MA-01-051-1101,Ait Kamra,restaurant,restaurant,Beach Club,,35.2381628,-3.9746998
MA-01-051-1101,Ait Kamra,restaurant,restaurant,Cafe Ali,"42V7+P2M, N16, Ait Kamara",35.1443373,-3.9874478
MA-01-051-1101,Ait Kamra,restaurant,restaurant,Restaurant somepi,Bni Bouayach,35.1298125,-3.8461875
MA-01-051-1101,Ait Kamra,restaurant,restaurant,Rahma,,35.171062500000005,-3.8620625
MA-01-051-1101,Ait Kamra,restaurant,restaurant,Lux,,35.2429674,-3.9307013
MA-01-051-1101,Ait Kamra,restaurant,restaurant,Mfoodrinks,"03 Rue Mohamed Zrektouni, Al Hoceïma 32000",35.2484375,-3.9310625000000003
MA-01-051-1101,Ait Kamra,restaurant,restaurant,JZA Fish Seafood,"N 10, Rue Essaouira, Al Hoceima 32000",35.2488125,-3.9321875
MA-01-051-1101,Ait Kamra,restaurant,restaurant,مطعم جمعية رشيد وزملائه,"Port dAl Hoceima, Al Hoceïma",35.2483125,-3.9241875
MA-01-051-1101,Ait Kamra,restaurant,restaurant,Magic Fast Food,"63W9+82W, Al Hoceïma",35.2458683,-3.9324154
MA-01-051-1101,Ait Kamra,restaurant,restaurant,Café Restaurant Al Amal,"52P4+J45, Izemmouren",35.1865169,-3.994728
MA-01-051-1101,Ait Kamra,restaurant,restaurant,Patisserie Moderne Marocaine,"7338+8PM, Rue Hay Mohamadi, Al Hoceïma",35.2533292,-3.93321
MA-01-051-1101,Ait Kamra,restaurant,restaurant,restaurant mustafa,"52P4+J84, P5209, Izemmouren",35.1865019,-3.9941667
MA-01-051-1101,Ait Kamra,restaurant,restaurant,Cactus,"34 Rue Bir Anzarane, Al Hoceïma 32000",35.2443125,-3.9341875
MA-01-051-1101,Ait Kamra,restaurant,restaurant,LA VOGUE,,35.2454325,-3.9596599
MA-01-051-1101,Ait Kamra,restaurant,restaurant,Cafe & Restaurant Jouhara,,35.1574252,-3.975017
MA-01-051-1101,Ait Kamra,restaurant,restaurant,AIT YOUSSEF OU ALI,Ctre Ait Youssef Ou Ali,35.1673125,-3.8661874999999997
MA-01-051-1101,Ait Kamra,restaurant,restaurant,Cafe mohammed,"63X9+V29 Rue Al Amal, Al Hoceima",35.2496609,-3.932396
MA-01-051-1101,Ait Kamra,restaurant,restaurant,Diamonde,"525C+5G5, P5209, Ait-Kamara",35.157887,-3.9786423
MA-01-051-1101,Ait Kamra,restaurant,restaurant,Cafe Molenbeek,,35.2088768,-3.8968447
MA-01-051-1101,Ait Kamra,restaurant,restaurant,BO'C Brunch-Cafe,,35.257107,-3.9280034
MA-01-051-1101,Ait Kamra,restaurant,restaurant,Al Khozama,,35.24416,-3.927838
MA-01-051-1101,Ait Kamra,restaurant,restaurant,Espace Sfiha,"635X+H5H Unnamed Road, Ajdir",35.2089352,-3.9020198
MA-01-051-1101,Ait Kamra,restaurant,restaurant,تاكوس الحسيمة,,35.2449847,-3.9305743
MA-01-051-1101,Ait Kamra,restaurant,restaurant,Café Restaurant Perla del Mar,,35.2573155,-3.7582737
MA-01-051-1101,Ait Kamra,restaurant,restaurant,Restaurant mimoun,,35.250339,-3.9230589
MA-01-051-1101,Ait Kamra,restaurant,restaurant,T-Beach Restaurant and Lounge,,35.2361854,-3.979037
MA-01-051-1101,Ait Kamra,restaurant,restaurant,Suites Hotel Mohammed V by Accor,,35.2457853,-3.9283073
MA-01-051-1101,Ait Kamra,restaurant,restaurant,Arena Palace Restaurant Boukidan,,35.1728181,-3.8637372
MA-01-051-1101,Ait Kamra,restaurant,restaurant,Tres Sabores,,35.2490286,-3.9454352
MA-01-051-1101,Ait Kamra,restaurant,restaurant,Restaurant Blanco,"44WX+9W9, Rue Isly, Imzouren",35.1460632,-3.8501484
MA-01-051-1101,Ait Kamra,restaurant,restaurant,Restaurant Espace Isly Beach,"639P+QJR Isly Beach, Al Hoceïma",35.2194911,-3.9134872
MA-01-051-1101,Ait Kamra,restaurant,restaurant,Miami Restaurant Al Hoceima,"Rue Essalam N12, Al Hoceïma 32000",35.2445625,-3.9309374999999998
MA-01-051-1101,Ait Kamra,restaurant,restaurant,Espace Fikri Food,"54XR+C92, Unnamed Road, Ctre Ait Youssef Ou Ali",35.1985081,-3.8591177
MA-01-051-1101,Ait Kamra,restaurant,restaurant,Cafe Al Saïda مقهى السعادة,"42V7+66G, Ait-Kamara",35.1430732,-3.986916
MA-01-051-1101,Ait Kamra,restaurant,restaurant,El Baraka : Café & Restaurant,,35.1711765,-3.8628544
MA-01-051-1101,Ait Kamra,restaurant,restaurant,CAFE KEBDANI,,35.2502289,-3.9373421
MA-01-051-1101,Ait Kamra,restaurant,restaurant,Galicia Délices,"Ctre Ait Youssef Ou Ali, Boukidan",35.1704375,-3.8605625000000003
MA-01-051-1101,Ait Kamra,restaurant,restaurant,Restaurant Sahili,"42V6+MW4, Ait-Kamara",35.1441348,-3.9876595
MA-01-051-1101,Ait Kamra,restaurant,restaurant,Restaurant Ahmed Hazzat R'Hach,N16,35.2100625,-3.7875625
MA-01-051-1101,Ait Kamra,restaurant,restaurant,café mira bades,Al Hoceïma,35.2445625,-3.9316875
MA-01-051-1101,Ait Kamra,restaurant,restaurant,Café Ourika,"45V2+V39, Av. Bir Anzarane, Imzouren",35.1446511,-3.8497798
MA-01-051-1101,Ait Kamra,restaurant,restaurant,Molly's Diner,"63VF+M78, Al Hoceïma",35.2441638,-3.926809
MA-01-051-1101,Ait Kamra,restaurant,restaurant,Jawhara : Café & Restaurant,"54FP+3G7, Ctre Ait Youssef Ou Ali",35.1726574,-3.863711
MA-01-051-1101,Ait Kamra,restaurant,restaurant,Amal ait kamra,"42RC+VFP, Ait-Kamara",35.1422113,-3.978812
MA-01-051-1101,Ait Kamra,restaurant,restaurant,Cafe Ait Kamra,"42V7+968, N2, Ait-Kamara",35.1434083,-3.9869224
MA-01-051-1101,Ait Kamra,restaurant,restaurant,restaurant ok,,35.2446207,-3.9315891
MA-01-051-1101,Ait Kamra,restaurant,restaurant,Origana Food,"63V9+RHV, Al Hoceïma",35.2446132,-3.9310718
MA-01-051-1101,Ait Kamra,restaurant,restaurant,Havana Beach Club : Café & Restaurant,,35.2119925,-3.9025813
MA-01-051-1101,Ait Kamra,restaurant,restaurant,Mediterráneo : Café & Restaurant,,35.248556,-3.93107
MA-01-051-1101,Ait Kamra,restaurant,café,Café Alhussein قهوة الحسين,Ait-Kamara,35.1515625,-3.9798125
MA-01-051-1101,Ait Kamra,restaurant,café,Cafe Ait Kamara,"524F+RJ9, N16, Ait Kamara",35.157049,-3.975901
MA-01-051-1101,Ait Kamra,restaurant,café,Cafe Ait Kamara مقهى أيت قمرة,,35.1495504,-3.9814873
MA-01-051-1101,Ait Kamra,restaurant,café,Cafe Ait Kamra,"42V7+968, N2, Ait-Kamara",35.1434083,-3.9869224
MA-01-051-1101,Ait Kamra,lodging,hôtel,Hôtel Mercure Quemado Resort,,35.245096,-3.926974
MA-01-051-1101,Ait Kamra,lodging,hôtel,Hôtel La Perla,,35.247155,-3.931949
MA-01-051-1101,Ait Kamra,lodging,hôtel,Hôtel Nexus Budget,,35.242059,-3.9304032
MA-01-051-1101,Ait Kamra,lodging,hôtel,Hôtel National,"23 Rue Tetouane, Al Hoceïma 32000",35.2416875,-3.9288125000000003
MA-01-051-1101,Ait Kamra,lodging,hôtel,Hôtel La Marina,,35.2335016,-3.9276318
MA-01-051-1101,Ait Kamra,lodging,hôtel,Hôtel Mercure Quemado Resort,,35.2450963,-3.9269741
MA-01-051-1101,Ait Kamra,lodging,hôtel,Radisson Blu Resort,,35.2032922,-3.8863813
MA-01-051-1101,Ait Kamra,lodging,hôtel,Hotel Costa Mondial,,35.2192585,-3.7737393
MA-01-051-1101,Ait Kamra,lodging,hôtel,Hôtel Al Hoceima Bay,,35.207549,-3.8999
MA-01-051-1101,Ait Kamra,lodging,hôtel,Radisson Blu Residences Al Hoceima,,35.2075503,-3.8975775
MA-01-051-1101,Ait Kamra,lodging,hôtel,Hôtel Cataleya,,35.2524605,-3.9443938
MA-01-051-1101,Ait Kamra,lodging,hôtel,Chafarina's Beach Hotel,,35.235635,-3.9809936
MA-01-051-1101,Ait Kamra,lodging,hôtel,Hôtel La Perla,,35.2471546,-3.9319493
MA-01-051-1101,Ait Kamra,lodging,hôtel,Appart Hôtel Puerto Marino,,35.2408072,-3.9341107
MA-01-051-1101,Ait Kamra,lodging,hôtel,Hôtel Mira Palace,,35.249281,-3.945615
MA-01-051-1101,Ait Kamra,lodging,hôtel,Hôtel Amir Plage,Al Hoceïma,35.2365625,-3.9235625
MA-01-051-1101,Ait Kamra,lodging,hôtel,Hôtel Almunecar,,35.2329567,-3.9283451
MA-01-051-1101,Ait Kamra,lodging,hôtel,Palm Beach Motel,,35.1921618,-3.8454201
MA-01-051-1101,Ait Kamra,lodging,hôtel,Hôtel Al Khouzama,,35.2430178,-3.9301532
MA-01-051-1101,Ait Kamra,lodging,hôtel,Hotel Glamour,"Av. Mohamed V, Al Hoceïma 32000",35.2423125,-3.9299375000000003
MA-01-051-1101,Ait Kamra,lodging,hôtel,Royal Rif Apartments,"National Road NR2, Ajdir 32000",35.1935625,-3.8931875
MA-01-051-1101,Ait Kamra,lodging,hôtel,RS Appartements Hôtel,,35.251094,-3.9487721
MA-01-051-1101,Ait Kamra,lodging,hôtel,RS Appartements Hôtel,"Mirador Bas, Rue Oulmess, Al Hoceïma 32000",35.25106249999999,-3.9488125
MA-01-051-1101,Ait Kamra,lodging,hôtel,Suites Hotel Mohammed V by Accor,,35.2457853,-3.9283073
MA-01-051-1101,Ait Kamra,lodging,hôtel,Résidence El Nido,"Itinéraire, Al Hoceïma 32000",35.2336875,-3.9589375
MA-01-051-1101,Ait Kamra,lodging,hôtel,Hôtel La Perla Bleue,"Hay Calabonita, Al Hoceïma 32000",35.233562500000005,-3.9273125
MA-01-051-1101,Ait Kamra,lodging,hôtel,Hôtel Basilic,,35.2448416,-3.9305983
MA-01-051-1101,Ait Kamra,lodging,hôtel,Rifiera Appart Hôtel,,35.2469678,-3.931613
MA-01-051-1101,Ait Kamra,lodging,hôtel,MAISON D’HÔTE LES TORTUES -,,35.1670591,-3.864901
MA-01-051-1101,Ait Kamra,lodging,hôtel,Hôtel Villa Florido,,35.2407743,-3.9282551
MA-01-051-1101,Ait Kamra,lodging,hôtel,"Apartment ""Rif""",,35.2450304,-3.956904
MA-01-051-1101,Ait Kamra,lodging,hôtel,Belle vue appartement al hoceima,,35.2334796,-3.9249404
MA-01-051-1101,Ait Kamra,hospital,hôpital,Centre Hospitalier Provincial Mohammed VI_Al Hoceïma,,35.1959996,-3.8875733
MA-01-051-1101,Ait Kamra,hospital,hôpital,Medical Fysio & Therapie Al Hoceima,"528G+68, Ait-Kamara",35.1655796,-3.9742026
MA-01-051-1101,Ait Kamra,hospital,hôpital,Ait-Kamara,,35.1441162,-3.9827405
MA-01-051-1101,Ait Kamra,hospital,hôpital,مستوصف آيت قمرة,,35.1434467,-3.9892585
MA-01-051-1101,Ait Kamra,hospital,hôpital,Centre Régional d’Oncologie Al Hoceïma,,35.2374,-3.9281986
MA-01-051-1101,Ait Kamra,hospital,clinique,Centre Hospitalier Provincial Mohammed VI_Al Hoceïma,,35.1959996,-3.8875733
MA-01-051-1101,Ait Kamra,hospital,clinique,Ain Borja Clinic - AKDITAL,,33.585169,-7.5966154
MA-01-051-1101,Ait Kamra,hospital,clinique,Clinique Bourjila,,35.2410082,-3.9382419
MA-01-051-1101,Ait Kamra,pharmacy,pharmacie,Pharmacie El Kamra,,33.9966923,-6.8683293
MA-01-051-1101,Ait Kamra,pharmacy,pharmacie,صيدلية آيت قمرة,,35.1436068,-3.9888545
MA-01-051-1101,Ait Kamra,pharmacy,pharmacie,Pharmacie Laqsir,,33.9057476,-5.2084845
MA-01-051-1101,Ait Kamra,pharmacy,pharmacie,Pharmacie Izemmouren,,35.187394,-3.9936997
MA-01-051-1101,Ait Kamra,pharmacy,pharmacie,Pharmacie Nekor,Ctre Ait Youssef Ou Ali,35.1733125,-3.8650625
MA-01-051-1101,Ait Kamra,pharmacy,pharmacie,Pharmacie El Kamra,,33.2824397,-8.3412546
MA-01-051-1101,Ait Kamra,pharmacy,pharmacie,Pharmacie Abdelkarim El Khattabi,,35.2442755,-3.9354426
MA-01-051-1101,Ait Kamra,school,lycée,Ait-Kamara,,35.1441162,-3.9827405
MA-01-051-1101,Ait Kamra,school,lycée,مجموعة مدارس آيت قمرة (المركزية),,35.1433432,-3.9867251
MA-01-051-1101,Ait Kamra,school,lycée,Lycée Rif,,35.1983507,-3.8947511
MA-01-051-1101,Ait Kamra,bank,banque,Ait-Kamara,,35.1441162,-3.9827405
MA-01-051-1101,Ait Kamra,bank,banque,MoneyGram,,35.14412,-3.98274
MA-01-051-1101,Ait Kamra,bank,banque,Cash Plus Ait Kamara,,35.1429934,-3.9875446
MA-01-051-1101,Ait Kamra,bank,banque,Western Union,,33.53786,-7.60007
MA-01-051-1101,Ait Kamra,bank,banque,Banque Populaire,,30.1763499,-9.486657
MA-01-051-1101,Ait Kamra,bank,banque,Western Union,,35.143069,-3.987611
MA-01-051-1101,Ait Kamra,bank,banque,Banque Populaire,,35.2425238,-3.9298546
MA-01-051-1101,Ait Kamra,bank,banque,Banque Populaire,,35.247722,-3.9327772
MA-01-051-1101,Ait Kamra,bank,banque,Crédit du Maroc,,35.2443036,-3.9343691
MA-01-051-1101,Ait Kamra,bank,banque,Bank Al Karam_Siège Social,,33.5858744,-7.622023
MA-01-051-1101,Ait Kamra,bank,banque,Attijariwafa Bank,,35.2417789,-3.9287766
MA-01-051-1101,Ait Kamra,bank,banque,Tasshilat,,35.1440194,-3.9878551
MA-01-051-1101,Ait Kamra,bank,banque,Banque CIH,,35.2485651,-3.9345247
MA-01-051-1101,Ait Kamra,bank,banque,DAMANE CASH AL HOCEIMA AIT KAMRA,,35.14557,-3.98502
MA-01-051-1101,Ait Kamra,supermarket,supermarché,Oujabar Market,,35.2482761,-3.9317549
MA-01-051-1101,Ait Kamra,supermarket,supermarché,Haya Market,,35.2405727,-3.933589
MA-01-051-1101,Ait Kamra,supermarket,supermarché,Palace Supermarket,,35.2529896,-3.9345803
MA-01-051-1101,Ait Kamra,supermarket,supermarché,Tahanout n' Sahil متجر سهيل,,35.1534514,-3.9793053
MA-01-051-1101,Ait Kamra,supermarket,supermarché,Supermarché Asaidi,,35.2413125,-3.9328125
MA-01-051-1101,Ait Kamra,supermarket,supermarché,Tahanout n' El Maghari متجر لمغاري,,35.1458244,-3.9851608
MA-01-051-1101,Ait Kamra,supermarket,supermarché,Marjane Market,,35.2460476,-3.938886
MA-01-051-1101,Ait Kamra,supermarket,épicerie,Épicerie Amhachi,,35.2446472,-3.9443524
MA-01-051-1101,Ait Kamra,supermarket,épicerie,Épicerie khalid chrif,,35.242574,-3.9292761
MA-01-051-1101,Ait Kamra,supermarket,épicerie,Tahanout n' Sahil متجر سهيل,,35.1534514,-3.9793053
MA-01-051-1101,Ait Kamra,supermarket,épicerie,Tahanout n' El Maghari متجر لمغاري,,35.1458244,-3.9851608
MA-01-051-1101,Ait Kamra,supermarket,épicerie,Epicerie Fine Solidaire,,33.9418264,-6.8927295
MA-01-051-1101,Ait Kamra,supermarket,épicerie,Epicerie Tamraght,,30.5127704,-9.6818108
MA-01-051-1101,Ait Kamra,supermarket,épicerie,متجر سعيد,,35.1441162,-3.9827405
MA-01-051-1101,Ait Kamra,supermarket,épicerie,Hanout 'n Mimoune,,35.1818756,-3.9967426
MA-01-051-1101,Ait Kamra,tourist_attraction,site touristique,Ait-Kamara,,35.1441162,-3.9827405
MA-01-051-1101,Ait Kamra,tourist_attraction,site touristique,Plage CalaBonita,,35.2347397,-3.922667
MA-01-051-1101,Ait Kamra,place_of_worship,mosquée,Ait-Kamara,,35.1441162,-3.9827405
MA-01-051-1101,Ait Kamra,place_of_worship,mosquée,Tamezgida 'n Ait Kamara Merkazi مسجد أيت قامرة المركزي,,35.1428064,-3.9865059
MA-01-051-1101,Ait Kamra,place_of_worship,mosquée,Tamezgida Ait Kamara مسجد,,35.149123,-3.9807519
MA-01-051-1101,Ait Kamra,place_of_worship,mosquée,Mosquée,,35.1615324,-3.9331957
MA-01-051-1101,Ait Kamra,place_of_worship,mosquée,Tamezgida n' Taghermant مسجد تغرمانت,,35.1750397,-3.9560009
MA-01-051-1101,Ait Kamra,place_of_worship,mosquée,Mosquée ait aamer,,33.8296017,-5.1245078
MA-01-051-1101,Ait Kamra,place_of_worship,mosquée,Tamezgida n' Ait Abdelaziz,"43R6+QG, Ait Hichem",35.1418837,-3.9386305
MA-01-051-1101,Ait Kamra,place_of_worship,mosquée,Tamezgida n' Ait Messaoud مسجد ايت مسعود,,35.1431143,-3.962385
MA-01-051-1101,Ait Kamra,place_of_worship,mosquée,مسجد دشار إزمورن mosquée dchar izmmouern,,35.1807831,-3.9979599
MA-01-051-1101,Ait Kamra,place_of_worship,mosquée,Tamezgida n' Ighdaren مسجد إغدارن,,35.1615728,-3.993508
MA-01-051-1101,Ait Kamra,place_of_worship,mosquée,Mosquée ait l'man,,33.5165099,-4.3469281
MA-01-051-1101,Ait Kamra,place_of_worship,mosquée,مسجد إصريحن,,35.1191149,-4.0025415
